store_id,store_name,address,city,account,district,region,lat,lng,category,annual_sales_usd,lines_per_store,fsm,covered,source,rating,review_count,price_level,phone,opening_hours,website,poi_count,place_id,business_status,google_types,governorate_group
34910603_CNF1120,FAIDH UNITED TRADING - IZKI,"IZKI, AL DAKHILIYAH,PC:614,POB:184",Izki,TT,,Nizwa,22.94132259,57.75899436,Grocery,311773.118,63.58333333,Jinu,True,portfolio,4.1,8,0,,,,0,ChIJz3VFKwBRjj4RdzndoT_uzhs,,,Balance
34910603_CN90407,AL EZZA HYPERMARKET - SAMAIL,"NORTH BATINAH,SAHAM,PC:319, POB:252",Sumail,TT,,Nizwa,23.29945708,57.95518257,Grocery,289948.171,60.58333333,Jinu,True,portfolio,3.9,349,0,,,,0,ChIJ74nNklNsjj4Rj18Uk1AoxUI,,,Balance
34910603_CN95777,MALMART-NIZWA,"MUSCAT,MUSCAT,1068,121,SULTANATE OF OMAN",Nizwa,MT,,Nizwa,22.88288481,57.54117399,Discounters,177936.28,20.77777778,Jinu,True,portfolio,4.3,679,0,,,,0,ChIJkcVYPsj7jj4R2ltdktdC8xs,,,Balance
34910603_CN90003,SAMA AL KHALEEJ MARKET LLC - ADAM,"NORTH AL SHARQIYA,AL MUDHAIBI,SAMAD ASH SHAN, PC:423, POB:417",Adam,TT,,Nizwa,22.38856561,57.52392227,Grocery,"162,593.92",46.11111111,Jinu,True,portfolio,3.8,410,0,,,,0,ChIJI9AzyTtzjz4ReefVi3mk-Io,,,Balance
34910603_CN95447,STAR GIFT CENTRE NEW LLC - SAMAD,"MUSCAT,123,321,SULTANATE OF OMAN",Samad,MT,,Nizwa,22.58193754,58.12554301,Discounters,147789.282,25.1,Jinu,True,portfolio,4.2,128,0,,,,0,ChIJNfa6AATDjz4RHKHCHOYbyKs,,,Balance
34910603_CNI1037,ISMAILY SHOPPING CENTRE - NIZWA,0,Nizwa,TT,,Nizwa,22.93501489,57.53369637,Grocery,127786.072,0.0,Jinu,True,portfolio,4.4,182,0,,,,0,ChIJ61ChNrfxjj4RPH2FZKlIRpU,,,Balance
34910603_CN91761,ROOH ALAKHWA - BARKAT MOUZ,"AL DAKHILIYA - NIZWA, BARKAT AL MOUZ,PC:45, POB:616",Nizwa,TT,,Nizwa,22.9172674,57.6723753,Self Service,118801.356,0.0,Jinu,True,portfolio,0.0,0,0,,,,0,ChIJXzVrKL1Xjj4RMGFRv474ngU,,,Balance
34910603_CNA1629,ANHAR AL FAYHA HYPER MARKET - SINAW,"MUTTRAH,PC;111, POB:3347",Sinaw,TT,,Nizwa,22.48961044,58.02691712,Grocery,116378.705,31.18181818,Jinu,True,portfolio,3.9,73,0,,,,0,ChIJq6L3ycfrjz4RrKqaugh-Osk,,,Balance
34910603_CN96297,NOOR EXPRESS - AL BURTUMANI,"Sultanate of Oman , Muscat, Bousher, Ghala Al Sanaiah, 130, 1811,0,00000",Nizwa,TT,,Nizwa,22.88750804,57.63480622,Grocery,114578.117,9.857142857,Jinu,True,portfolio,0.0,0,0,,,,0,,,,Balance
34910603_CNA388,AL ABDHALI COLD STORES - MANAH,"AL DAKHILIYA, MANAH,SULTANATE OF OMAN,PC:619, POB:121",Mana,TT,,Nizwa,22.78923816,57.60000744,Grocery,112783.405,52.0,Jinu,True,portfolio,4.3,186,0,,,,0,ChIJlWBtZ63_jj4ReFQPi0bY5KY,,,Balance
34910603_CN92910,AL RAHA HYPER - NIZWA-BARKAT AL MAUZ,"AL DAKHILIYAH,IZKI,IZKI,QALAT AL AWAMER,POB:614, PC:614, SULTANATE FO OMAN",Barkat Mouz,TT,,Nizwa,22.91852753,57.6640654,Self Service,"112,046.05",0.0,Jinu,True,portfolio,4.4,1791,0,,,,0,ChIJNVC82JRXjj4R34xfOV5EcRU,,,Balance
34910603_CNH1286,AL HABSI MARKETS LLC - SAMAIL,"AL DAKHILIA, SAMAIL,PC:620, POB:637",Sumail,WS+IS,,Nizwa,23.2975125,57.95749249,Wholesale,"103,244.22",64.5,Jinu,True,portfolio,4.1,235,0,,,,0,ChIJR5KHufdsjj4R8IbKNXw4yn4,,,Balance
34910603_CN94474,CITY MART - SUMAIL EAST,"AL DAKHILIYAH, IZIKI,PC:614, POB:275",Sumail,MT,,Nizwa,23.29605311,57.94389919,Discounters,100800.151,47.25,Jinu,True,portfolio,4.0,226,0,,,,0,ChIJS65AUGltjj4RT-Yuhd3Xn2Q,,,Balance
34910603_CNW1050,WORLD GIFT MARKETING - IZKI,"AL DAKHILIYAH, IZIKI,PC:614, POB:275",Izki,MT,,Nizwa,22.91544059,57.7415765,Discounters,100749.147,27.44444444,Jinu,True,portfolio,3.9,342,0,,,,0,ChIJN8ST6ClRjj4RUAVJGed8L1w,,,Balance
34910603_CN90382,ANHAR AL FAYHA TRADING  - MUDHAIBI,"MUTTRAH,PC;111, POB:3347",Mudhaibi,TT,,Nizwa,22.58144725,58.12511071,Grocery,99693.438,16.0,Jinu,True,portfolio,3.7,41,0,,,,0,ChIJZ0VneLnDjz4RHilEtEED3PQ,,,Balance
34910603_CNN022,NAGINKUMAR CHHOTALAL TANNA & - NIZWA,"FARQ, AL-DAKHILIYAH, NIZWA PC:611, POB:436",Nizwa,WS+IS,,Nizwa,22.89240555,57.53064926,Wholesale,99546.611,1.0,Jinu,True,portfolio,3.8,17,0,,,,0,ChIJZedV0xT6jj4Rf75-Yc3Yr-w,,,Balance
34910603_CN95033,HOOR AL AIN HYPERMARKET - SINAW,"AL IRAQI,AL RUSTAQ,POB:46,PC:318, SULTANATE OF OMAN",Sinaw,TT,,Nizwa,22.48879916,58.02754342,Self Service,95859.791,27.45454545,Jinu,True,portfolio,4.1,26,0,,,,0,ChIJdwe01CXrjz4RXt9CGuNTOO4,,,Balance
34910603_CN96696,AL IDKHAR GIFT MARKET - ADAM,"ADAM, AL DAKHILIYAH, PC:618, POB:24",Adam,MT,,Nizwa,22.38749871,57.5253893,Discounters,94234.495,6.090909091,Jinu,True,portfolio,4.0,4,0,,,,0,ChIJoVWcMTlzjz4RetfKJlAnFJI,,,Balance
34910603_CNA386,AMER ALI SONS - SINAW,"AL MUDHAIBI,SINAW,PC:418,POB:27,SULTANATE OF OMAN",Sinaw,WS+IS,,Nizwa,22.48629907,58.02731016,Wholesale,89615.721,6.2,Jinu,True,portfolio,0.0,0,0,,,,0,,,,Balance
34910603_CNB1353,DUBAI SHOPPING CENTER INTL - MUDHAIBI,"AL SEEB, NORTH AL MOOLAH, PC:132, POB:1019",Nizwa,KEY ACCOUNT ,,Nizwa,22.57705951,58.12116001,Rest Of Key Accounts,81457.703,0.0,Jinu,True,portfolio,3.9,188,0,,,,0,ChIJ6yjyoB3Djz4R3vOEYfcfoJo,,,Balance
34910603_CN94936,AL TAMAM INTERNATIONAL - MUDHAIBI,"SULTANATE OF OMAN, MUSCAT,PC:114, POB:637, FANJA, 0, 0",Mudhaibi,TT,,Nizwa,22.569628,58.118164,Grocery,78887.013,38.66666667,Jinu,True,portfolio,3.8,126,0,,,,0,ChIJObtGaL_Djz4RsusXX2rp4h4,,,Balance
34910603_CN94473,SUPERMARKET 24 - NIZWA,"PC:612,MUSCAT,AL SEEB,AL KHAWD",Nizwa,TT,,Nizwa,22.88782997,57.55196732,Grocery,76665.397,26.8,Jinu,True,portfolio,4.5,94,0,,,,0,ChIJldDXkZP7jj4RH6xjn66GSuw,,,Balance
34910603_CN96499,AL SHIKH SHOPPING CENTER-SAMAD SHAN,"AR RUMAYS,SOUTH BATINAH, BARKA,PC:328,POB:78",Samad,MT,,Nizwa,22.8269777,58.16929316,Discounters,75924.435,45.0,Jinu,True,portfolio,4.0,640,0,,,,0,ChIJG5Y5eZbNjz4RUSUuCLd87Sc,,,Balance
34910603_CN94483,TAJ DELUXE SHOPPING - BEACH - KHADRA,"NORTH BATINAH, AL SUWAIQ,PC:315,POB:279",Khadra,TT,,Barka,23.87684309,57.34098927,Grocery,74370.061,21.16666667,Shaqsy,True,portfolio,0.0,0,0,,,,0,,,,Balance
34910603_CN95650,AL MANARA UNITED CO LLC-IZKI,"SULTANANE OF OMAN, P.O BOX -46, P. CODE -0, IZKI, AD DAKHILIYAH",Izky,MT,,Nizwa,22.93861679,57.75570417,Discounters,66877.331,15.57142857,Jinu,True,portfolio,4.1,19,0,,,,0,ChIJ_____-9Qjj4RzS1EJJvDyhc,,,Balance
34910603_CN93270,AL BADIYA HYPERMARKET - MULADHA,"NORTH BATINAH, AL SUWAIQ, PC:316, PC:194",Muladha,TT,,Barka,23.75619826,57.56035226,Grocery,66213.689,46.83333333,Shaqsy,True,portfolio,4.1,58,0,,,,0,ChIJ6R3tAXU1jD4RHfULPlYSxpA,,,Balance
34910603_CND353,DWARAKADAS & PARTNERS CO - SAMAIL,"MUSCAT,MUTTRAH,MUTTRAH,PC:112, POB:493",Sumail,WS+IS,,Nizwa,23.29415461,57.96202618,Wholesale,66200.884,14.75,Jinu,True,portfolio,3.6,68,0,,,,0,ChIJMylj-_dsjj4RLNGiypffUIA,,,Balance
34910603_CN90112,GREEN SPRING HYPERMARKET - Izki,"AL DAKHILIYAH,IZKI,IZKI,SULTANATE OF OMAN,PC:614, POB:347",Nizwa,KEY ACCOUNT ,,Nizwa,22.93077468,57.7776361,Rest Of Key Accounts,64033.974,16.8,Jinu,True,portfolio,3.9,113,0,,,,0,ChIJwddE3PhQjj4RTqCg6xt6tRI,,,Balance
34910603_CNT1196,AL TAYEBAT NATIONAL (WHOLESAL - MUSANNAH,"PC:10, POB:312",Maghsar,TT,,Barka,24.4470429,56.602309,Self Service,62711.39,0.0,Shaqsy,True,portfolio,0.0,0,0,,,,0,ChIJ0WvcsZhJiz4RQ0Pmyz1_EC4,,,Balance
34910603_CN91988,AL AIN MART- NIZWA - HAY ALAIEN,"AL DAKHILIYA,NIZWA,POB:142,PC:611, SULTANATE OF OMAN",Nizwa,TT,,Nizwa,22.92660991,57.5222106,Grocery,60575.032,19.33333333,Jinu,True,portfolio,4.3,116,0,,,,0,ChIJBZvauvvxjj4R-RY9GuIWoNA,,,Balance
34910603_CNM0084,MS MAX (MUSCAT GIFT MARKET) - BURAIMI,"AL-BURAIMI,104,512,SULTANATE OF OMAN",Sohar,MT,,Sohar,24.25598094,55.76908748,Discounters,60119.887,9.0,Shaqsy,True,portfolio,4.2,1424,0,,,,0,ChIJj_qoQDy1ij4RIveUU3B4_I8,,,Balance
34910603_CNY1025A,AL YARA HYPER - WUSAD -  SELECT WILAYAT/AREA,"BIRKAT AL MAWZ, AL-DAKHILIYAH, PC:614, POB:184",Afiya,TT,,Nizwa,23.16314481,57.85380009,Grocery,57753.234,36.0,Jinu,True,portfolio,4.1,39,0,,,,0,ChIJi5S_j8tpjj4RinFL7LdCKbM,,,Balance
34910603_CN93437,AMJD AL SABAHI TRADING - NIZWA,0,Nizwa,TT,,Nizwa,22.85920838,57.5199663,Grocery,55415.9,0.0,Jinu,True,portfolio,0.0,0,0,,,,0,,,,Balance
34910603_CNQ1051,AL QABAEL GIFT MARKET LLC-NIZWA,"MUTTRAH,RUWI, PC:611, POB:1551",Nizwa,MT,,Nizwa,22.90746685,57.5299063,Discounters,54413.78,36.0,Jinu,True,portfolio,3.9,1286,0,,,,0,ChIJR-gd2XT6jj4R1hj56ddbIac,,,Balance
34910603_CN91191,ADAM EXCELLENCE MARKET - ADAM,"NORTH AL SHARQIYA,AL MUDHAIBI,SAMAD ASH SHAN,PC:423, POB:417",Adam,TT,,Nizwa,22.38277897,57.53258029,Grocery,53079.239,15.9,Jinu,True,portfolio,3.8,227,0,,,,0,ChIJ941OnGpzjz4RlX81AgQjhJY,,,Balance
34910603_CN93050,KHIMJI MART LLC(NIZWA SS SHELL)-NIZWA,"MUSCAT,PC:100, POB:19",Nizwa,KEY ACCOUNT ,,Nizwa,22.904148,57.532603,Rest Of Key Accounts,53019.787,0.0,Jinu,True,portfolio,4.0,232,0,,,,0,ChIJp25e7Az6jj4RKCtxrCZ79nc,,,Balance
34910603_CNZ503,ZAHRAT AL FAWA - MULADHA,"NORTH BATINAH,AL SUWAIQ, AS WUWAYQ,PC:315,POB:109",Muladha,TT,,Barka,23.73524467,57.68261299,Grocery,52725.042,7.1,Shaqsy,True,portfolio,0.0,0,0,,,,0,,,,Balance
34910603_CNA1406,ASWAQ ANWAR AL KHALEEJ - BURAIMI,"SULTANATE OF OMAN,BURAIMI,BURAIMI,PC:512, POB:971",Buraimi,TT,,Sohar,24.25504629,55.78167527,Self Service,51601.422,26.3,Shaqsy,True,portfolio,4.0,759,0,,,,0,ChIJ1TVviiG0ij4R0JHz1XK_-Qc,,,Balance
34910603_CN92015,DREAMS DISCOUNT CENTER LLC-NIZWA,"MUSCAT,MUSCAT,886,511,SULTANATE OF OMAN",Nizwa,MT,,Nizwa,22.88872638,57.5535455,Discounters,51272.03,9.4,Jinu,True,portfolio,4.1,634,0,,,,0,ChIJpU3Kw1f5jj4R5JDoDZ8rZ_s,,,Balance
34910603_CNA507,AL TAYEBAT NATIONAL LLC - MUSANNAH,"PC:10, POB:312",Musannah,TT,,Barka,23.74339813,57.62907343,Self Service,51226.813,0.0,Shaqsy,True,portfolio,0.0,0,0,,,,0,,,,Balance
34910603_CND508,DANAT AL FAO LLC - KHABA,"NORTH BATINAH,AL-SUWAIQ, AS SUWAYQ,PC:315, POB:511",Khabbah,TT,,Barka,23.80485838,57.47607039,Grocery,50905.949,14.25,Shaqsy,True,portfolio,0.0,0,0,,,,0,,,,Balance
34910603_CN99240,MASTER MART HYPERMARKET - SINAW,"SULTANATE OF OMAN, MUSCAT, BOUSHER, GHALA, 111, 112, 00, 0.",Nizwa,TT,,Nizwa,22.503408,58.034538,Grocery,50190.26,41.0,Jinu,True,portfolio,3.9,139,0,,,,0,ChIJt5aLOZfqjz4RA5-gA5fqmSk,,,Balance
34910603_CNK1133,AL KHADRA SHOPPING CENTER - KADRA,"SULTANATE OF OMAN, NORTH AL SHARQIYA, AL-MUDHAIBI, KHADRA BANI DAFFA, 418, 234.",Khadra,TT,,Nizwa,22.79489293,58.00358136,Grocery,50138.007,7.5,Jinu,True,portfolio,0.0,0,0,,,,0,,,,Balance
34910603_CN96142,QOOT HYPERMARKET - THARMAD,"SUMAIL,AL DAKHILIYAH,POB:82,PC:615,SULTANATE OF OMAN",Tharmad,TT,,Barka,23.800465,57.48432,Grocery,48057.048,0.0,Shaqsy,True,portfolio,0.0,0,0,,,,0,,,,Balance
34910603_CNSM0163,ENHANCE - (OMAN OIL)- IZKI BY PASS,"BOUSHER, GHALA AL SANAIAH,PC:130, POB:1181",Mana,TT,,Nizwa,22.91552074,57.77710793,Grocery,47907.281,0.0,Jinu,True,portfolio,4.0,773,0,,,,0,ChIJHVypTQZRjj4RaZ9Kd-r_7RY,,,Balance
34910603_CN94520,AL FOUZ HYPERMARKET -AL KHADRA,"MUSCAT,MUTTRAH,PC:114, POB:1724",Khadra,TT,,Nizwa,22.88018241,58.00602939,Grocery,47740.977,17.1,Jinu,True,portfolio,4.1,35,0,,,,0,ChIJDd0WOitLjj4RSa1U0YcS29U,,,Balance
34910603_CNR1025,AL RAHA SHOPPING CENTRE - IZKI,"AL DAKHILIYAH,IZKI,IZKI,QALAT AL AWAMER,POB:614, PC:614, SULTANATE FO OMAN",Qala,TT,,Nizwa,22.82622737,57.75471456,Self Service,46519.19,0.0,Jinu,True,portfolio,0.0,0,0,,,,0,,,,Balance
34910603_CN97472,HALA INTEGRATED - IZKI,"AL DAKHILIYAH,IZKI,IZKI,614,12,SULTANATE OF OMAN",Izki,TT,,Nizwa,23.00829155,57.79062567,Grocery,46172.558,0.0,Jinu,True,portfolio,4.1,41,0,,,,0,ChIJNQC2nE5bjj4R1v6yeShJ150,,,Balance
34910603_CN95732,SWIFT MARKETING - AL MAHA STATION - BURAIMI,"AL BURAIMI,AL BURAIMI,111,0,AL BURAIMI STREET, SULTANATE OF OMAN",Buraimi,TT,,Sohar,24.23570451,55.9150109,Grocery,45471.005,8.333333333,Shaqsy,True,portfolio,0.0,0,0,,,,0,,,,Balance
34910603_CN4124,TAJ ALFALAJ  LIWA MALL - LIWA JADEED,"NORTH BATINAH, SOHAR,PC:311, POB:303",Liwa,TT,,Sohar,24.52373265,56.55893171,Self Service,44883.943,78.5,Shaqsy,True,portfolio,4.1,669,0,,,,0,ChIJf60Gc5A1iz4R_ZYQ7S2rnOM,,,Balance
34910603_CN94733,TAFADAL HYPERMARKET - NIZWA,"Sultanate of Oman, Al Dakhila, Nizwa, 723, 611",Nizwa,TT,,Nizwa,22.85759423,57.52885599,Grocery,44147.931,19.66666667,Jinu,True,portfolio,4.1,76,0,,,,0,ChIJZXBGDxr7jj4Ra4cWD3U3qQc,,,Balance
34910603_CN91957,STAR CENTER GIFTS & SERVICES LLC-SAMAIL,0,Sumail,MT,,Nizwa,23.30755288,57.94925837,Discounters,44136.971,18.0,Jinu,True,portfolio,4.1,390,0,,,,0,ChIJH2ngrPBtjj4Ru0Rq7jDJJqI,,,Balance
34910603_CN93369,MAKKAH HYPERMARKET - QALA - IZIKI,"NORTH BATINAH,AL SUWAIQ,ATH THARMAD PC:314,POB:331",Izki,TT,,Nizwa,22.82877145,57.75455016,Self Service,43548.193,22.90909091,Jinu,True,portfolio,3.8,159,0,,,,0,ChIJ-fCgsgZTjj4Ru6jXeYABc90,,,Balance
34910603_CN96395,HYPERLAND -BURAIMI,"MUSCAT, AL SEEB, AS SEEB, 111,0,0,0, SULTANATE OF OMAN",Buraimi,TT,,Sohar,24.25555504,55.79726963,Self Service,43519.865,54.0,Shaqsy,True,portfolio,4.1,203,0,,,,0,ChIJt61Pejq1ij4RP1_6d6yPNQE,,,Balance
34910603_CNA1678,AL KAWTHER LINE INTERNATIONAL - ADAM,"AL DAKHILIYAH,ADAM,ADAM,OC:618,POB:101",Adam,TT,,Nizwa,22.37555122,57.5297829,Grocery,43499.554,26.0,Jinu,True,portfolio,0.0,0,0,,,,0,,,,Balance
34910603_CN98439,NOOR SHOPPING (AGI) - NIZWA,"BOUSHER, GHALA AL SANAIAH,PC:130, POB:1181",Nizwa,TT,,Nizwa,22.858619,57.522415,Grocery,43379.765,8.181818182,Jinu,True,portfolio,4.1,103,0,,,,0,ChIJg1Vuxy77jj4Renjc5QwWRAM,,,Balance
34910603_CNM1493,AL MADEENA SHOPPING CENTER - IZKI,"AL DAKHILIYAH,IZKI,IZKI,SULTANATE OF OMAN,PC:614, POB:347",Nizwa,KEY ACCOUNT ,,Nizwa,22.9514386,57.7696178,Rest Of Key Accounts,42751.749,18.25,Jinu,True,portfolio,0.0,0,0,,,,0,,,,Balance
34910603_CNE351,DAR AL DHIYAFA SHOPPING CENTRE - SAMAIL,"SAMAIL, AL-DAKHILIYAH,SUMAIL,PC:620, POB:0",Afiya,TT,,Nizwa,23.09636983,57.82502153,Grocery,41834.91,20.0,Jinu,True,portfolio,4.1,102,0,,,,0,ChIJiRkQxdJcjj4RS_xKL8FCbBI,,,Balance
34910603_CN90529,BABIL HYPERMARKET - SINAW,"AL SEEB,AL KHAWD,PC:132, POB:624",Sinaw,TT,,Nizwa,22.50359167,58.03491732,Self Service,39212.161,0.0,Jinu,True,portfolio,3.9,139,0,,,,0,ChIJt5aLOZfqjz4RA5-gA5fqmSk,,,Balance
34910603_CN96077,ATAYA SHOPPING CENTER- IZKI,"SULTANTE OF OMAN, P.O BOX-3, P. CODE-312, SAHAM, AL BATINAH NORTH",Izki,MT,,Nizwa,22.94104399,57.75751338,Discounters,"39,211.33",10.5,Jinu,True,portfolio,4.0,470,0,,,,0,ChIJZfJ8-L9Qjj4RFJfo55iJuX4,,,Balance
34910603_CN99512,SINAW FRESH HYPERMARKET - SINAW,"NORTH ALSHARQIYA ,SINAW.",Sinaw,TT,,Nizwa,22.477354,58.027649,Grocery,38961.271,205.0,Jinu,True,portfolio,4.6,9,0,,,,0,ChIJ8xwfbETrjz4ReVais5A2bzk,,,Balance
34910603_CN99019,AL ANSARI SHOPPING - WUDAM,"AL BATINAH,MUSANNA,SULTANATE OF OMAN,PC:312, POB:418",Wudam,MT,,Barka,23.808908,57.554443,Discounters,38819.145,6.833333333,Shaqsy,True,portfolio,0.0,0,0,,,,0,ChIJ0y6RFABLjD4RB_m4cfwUwC0,,,Balance
34910603_CN90468,SAMA AL KHALEEJ MARKETS - AL QARITAN,"NORTH AL SHARQIYA,AL MUDHAIBI,SAMAD ASH SHAN, PC:423, POB:417",Khadra,TT,,Nizwa,22.88223815,58.00737651,Grocery,37988.524,0.0,Jinu,True,portfolio,0.0,0,0,,,,0,,,,Balance
34910603_CNA1313,AL AMRI SHOPPING CENTER - SAMAIL,0,Sumail,MT,,Nizwa,23.29338586,57.96310486,Discounters,37472.181,0.0,Jinu,True,portfolio,4.0,109,0,,,,0,ChIJrQLqxvdsjj4RRMt5DkGq2nA,,,Balance
34910603_CN7765,AL KASS SHOPPING CENTRE - ABU ABALI,"AL BATINA, BARKA, PC:320, POB:237, SULTANATE OF OMAN",Abu Abali,TT,,Barka,23.75216817,57.62554699,Grocery,37113.652,12.125,Shaqsy,True,portfolio,0.0,0,0,,,,0,,,,Balance
34910603_CNR359,RAHAB AL MANSOORIYA TRADING - NIZWA,"AL DAKHILIYA,NIZWA,NIZWA,POB:1307,PC:611,SULTANATE OF OMAN",Nizwa,TT,,Nizwa,22.9512436,57.52843697,Grocery,36799.355,0.0,Jinu,True,portfolio,0.0,0,0,,,,0,,,,Balance
34910603_CN99550,AL MUDHAIBI INTL COLD STORE - AL MUDHAIBI,"P.O.BOX:100, P.CODE:100, AL MUBALA 1, SULTANATE OF OMAN",Sumail,TT,,Nizwa,22.570326,58.122065,Grocery,36762.242,24.6,Jinu,True,portfolio,0.0,0,0,,,,0,,,,Balance
34910603_CN99264,AL FOUZ HYPERMARKET - IZKI,"MUSCAT,MUTTRAH,PC:114, POB:1724",Nizwa,TT,,Nizwa,22.944328,57.760078,Grocery,35304.273,40.66666667,Jinu,True,portfolio,5.0,2,0,,,,0,ChIJOfU0BgBRjj4RK_f5qSMGWww,,,Balance
34910603_CN91739,AL QABAEL GIFT MARKET LLC - IZKI,"MUTTRAH,RUWI, PC:611, POB:1551",Izki,MT,,Nizwa,22.92550097,57.75042537,Discounters,35123.134,33.63636364,Jinu,True,portfolio,4.0,380,0,,,,0,ChIJ5ftXD35Rjj4RQtFtsPMjJUk,,,Balance
34910603_CN95064,AL NAS HYPERMARKET - MANAH,"AL DHAKHILIYAH, BAHLA,HAHLA,PC:612,612",Manah,TT,,Nizwa,22.78624356,57.60336955,Grocery,34476.196,9.6,Jinu,True,portfolio,0.0,0,0,,,,0,,,,Balance
34910603_CN93326,MS MAX - KHABURAH,"AL BURAIMI,PC:512, POB:590",Khabura,MT,,Barka,23.9633863,57.09646039,Discounters,34314.091,20.3,Shaqsy,True,portfolio,4.3,2121,0,,,,0,ChIJXwzEkbl9jD4RB-iYLpAlLeY,,,Balance
34910603_CNG1054,GRAND HYPERMARKET - SAHAM,"MUSCAT,MUTTRAH,RUWI,PC:112, POB:4074, AL NOOR STREET, IKRAM HOUSE",Saham,TT,,Sohar,24.1542902,56.8851722,Self Service,34186.401,0.0,Shaqsy,True,portfolio,3.8,693,0,,,,0,ChIJMZbVxFBiiz4R3X9wC0ZEiHU,,,Balance
34910603_CN98077,AL MEERA SELECT SINAW   - SINAW,"BOUSHER, NORTH ALUDHAYBAT,SULTANATE OF OMAN, PC:102, POB:",Sinaw,TT,,Nizwa,22.487541,58.026202,Grocery,34031.549,4.0,Jinu,True,portfolio,0.0,0,0,,,,0,,,,Balance
34910603_CN98067,AL MEERA SELECT  SUWAIQ - SUWAIQ,"BOUSHER, NORTH ALUDHAYBAT,SULTANATE OF OMAN, PC:102, POB:",Suwaiq,TT,,Barka,23.713159,57.240445,Grocery,33908.752,21.16666667,Shaqsy,True,portfolio,0.0,0,0,,,,0,,,,Balance
34910603_CN98844,AL MANARA UNITED LLC - NIZWA,"SULTANANE OF OMAN, P.O BOX -46, P. CODE -0, IZKI, AD DAKHILIYAH",Nizwa,WS+IS,,Nizwa,22.891623,57.530579,Wholesale,33469.314,9.333333333,Jinu,True,portfolio,0.0,0,0,,,,0,,,,Balance
34910603_CNA1676,ABDULLAH KALEEFA SALIM TRD - KADRA,0,Khadra,TT,,Barka,23.86787472,57.31549417,Grocery,32854.239,3.25,Shaqsy,True,portfolio,0.0,0,0,,,,0,,,,Balance
34910603_CNSM0162,ENHANCE - (OMAN OIL)- HAIL FIRQ,"BOUSHER, GHALA AL SANAIAH,PC:130, POB:1181",Firq,TT,,Nizwa,22.86039758,57.55313241,Grocery,32797.247,0.0,Jinu,True,portfolio,0.0,0,0,,,,0,,,,Balance
34910603_CNJ1109,JANOOB MADENA SHOPPING CENTER - AL SUWAYQ,"NORTH BATINAH, AL SUWAIQ, PC:315,POB:93",Suwaiq,TT,,Barka,23.8272589,57.4110067,Self Service,32567.208,35.0,Shaqsy,True,portfolio,0.0,0,0,,,,0,,,,Balance
34910603_CN94444,TAJ HYPERMARKET - SAYMA - IZKI,"NORTH BATINAH, AL SUWAIQ,PC:315,POB:279",Nizwa,TT,,Nizwa,22.97244581,57.90552308,Self Service,32498.097,23.83333333,Jinu,True,portfolio,4.0,45,0,,,,0,ChIJcaaZoslPjj4RlGGifNHwM4E,,,Balance
34910603_CN95598,MAJEESCO SHOPPING - SOHAR SOUQ,"SULTANANE OF OMAN, P.O BOX -33311, P. CODE-311, SOHAR,AL BATINAH NORTH",Sohar,TT,,Sohar,24.34716254,56.73741783,Grocery,31470.853,4.875,Shaqsy,True,portfolio,4.1,130,0,,,,0,ChIJ_5rGQL1Fiz4RpTtKsQ0mMsU,,,Balance
34910603_CNS362,IZZ COLD STORE - IZZ,0,Adam,TT,,Nizwa,22.841928,57.544393,Grocery,31469.071,0.0,Jinu,True,portfolio,5.0,1,0,,,,0,ChIJb-7b_TD7jj4RFAyQILRphrU,,,Balance
34910603_CNN0049,NAWA HYPER MARKET - BIDAYA,"NORTH BATINAH,AL KHABURA,PC:326, POB:567",Bidaya,TT,,Barka,23.92190022,57.16813108,Self Service,30485.307,35.18181818,Shaqsy,True,portfolio,3.9,188,0,,,,0,ChIJG7A3IHVkjD4RKLZpovn8fdo,,,Balance
34910603_CN97771,BASHAER NIZWA SHOPPING CENTER - NIZWA,"AL DAKHILIYAH,NIZWA,GHAF ALSHAYKH,111,611,SULTANATE OF OMAN",Nizwa,WS+IS,,Nizwa,22.914967,57.524399,Wholesale,30320.879,6.0,Jinu,True,portfolio,0.0,0,0,,,,0,ChIJe6ExFirxjj4RcDVSxC2iSpI,,,Balance
34910603_CN96789,AHLAIN INTERNATIONAL LLC - SUMAIL HOBE,"MUTTRAH,MINA ALFAHAL PC:116, POB:92",Izki,TT,,Nizwa,23.32131955,57.96173551,Grocery,29767.774,7.857142857,Jinu,True,portfolio,0.0,0,0,,,,0,,,,Balance
34910603_CN99553,AL EZZA DISCOUNT SENTER - SUMAIL WEST,"NORTH BATINAH,SAHAM,PC:319, POB:252",Sumail,MT,,Nizwa,23.299202,57.95544,Discounters,28813.584,2.666666667,Jinu,True,portfolio,3.9,349,0,,,,0,ChIJ74nNklNsjj4Rj18Uk1AoxUI,,,Balance
34910603_CNS207,SAIHOOTH SHOPPING CENTRE - KABURAH,"NORTH BATINAH,AL-KHABURA,PC:326,POB:14",Khabura,TT,,Barka,23.96900934,57.09324685,Self Service,28771.705,52.41666667,Shaqsy,True,portfolio,4.2,274,0,,,,0,ChIJ6VuBtkl9jD4RZbpPcAjcNto,,,Balance
34910603_CNS227,TAJ HYPER MARKET- HO - KHADRA,"NORTH BATINAH, AL SUWAIQ,PC:315,POB:279",Khadra,TT,,Barka,23.85663157,57.33260956,Self Service,"28,734.15",48.41666667,Shaqsy,True,portfolio,4.0,1018,0,,,,0,ChIJVdyU-CFDjD4RVsztHeif5Mg,,,Balance
34910603_CN90554,VILLAGE MALL - SHINAS,"SOHAR,NORTH BATINAH,SOHAR,PC:311, POB:0",Shinas,TT,,Sohar,24.74668154,56.45264022,Self Service,28734.021,31.5,Shaqsy,True,portfolio,3.9,835,0,,,,0,ChIJNYF9ZwzE9D4R5dDTZduZP9U,,,Balance
34910603_CNP01301,AL MEERA MARKETS SAOC - BARKA,"BOUSHER, NORTH ALUDHAYBAT,SULTANATE OF OMAN, PC:102, POB:",Barka,KEY ACCOUNT ,,Barka,17.02076868,54.0551195,Rest Of Key Accounts,"28,330.48",0.0,Shaqsy,True,portfolio,0.0,0,0,,,,0,,,,Balance
34910603_CN91150,AL BADIA HYPERMARKET - AL KHABOURA,"NORTH BATINAH, AL SUWAIQ, PC:316, PC:194",Khabura,TT,,Barka,23.97120326,57.08961092,Grocery,"28,152.62",31.83333333,Shaqsy,True,portfolio,3.7,118,0,,,,0,ChIJ32P0G0Z9jD4RIoJIzqWQRpA,,,Balance
34910603_CN95656,AL WIAAM HYPERMARKET -THARMAD,"NORTH BATINAH,AL SUWAIQ,AS SUWQYQ,SULTANATE OF OMAN,PC:315",Tharmad,TT,,Barka,23.7863054,57.52132146,Grocery,28118.297,42.88888889,Shaqsy,True,portfolio,3.8,988,0,,,,0,ChIJcTO6DqVJjD4REZ6q9bloq20,,,Balance
34910603_CN94017,NIZWA TRADE CENTER - NIZWA,0,Nizwa,TT,,Nizwa,22.93584938,57.53001194,Grocery,27454.666,19.66666667,Jinu,True,portfolio,3.9,26,0,,,,0,ChIJBaPRrnrxjj4RYMXh2lbtqOs,,,Balance
34910603_CNK035,AL JAMA SHOPPING CENTER - ADAM,"AL DAKHILIYAH,ADAM, SULTANATE OF OMAN,PC:618,POB:17",Adam,TT,,Nizwa,22.37647941,57.52131474,Grocery,26631.499,7.0,Jinu,True,portfolio,4.5,91,0,,,,0,ChIJ-QpYqZJzjz4RhSrdQcaT3iE,,,Balance
34910603_CNSM0159,ENHANCE - (OMAN OIL)- SAMAIL FAYAHA,"BOUSHER, GHALA AL SANAIAH,PC:130, POB:1181",Nizwa,TT,,Nizwa,23.3008272,57.95851659,Grocery,26442.322,0.0,Jinu,True,portfolio,0.0,0,0,,,,0,,,,Balance
34910603_CN96649,NASEEM AL WADI HYPERMARKET - SUWAIQ,"NORTH BATINAH, AL SUWAIQ, PC:316, PC:194",Suwaiq,TT,,Barka,23.83854608,57.38360538,Grocery,26378.982,22.41666667,Shaqsy,True,portfolio,4.0,562,0,,,,0,ChIJx_hvB3tEjD4RGE_ud3ReaD0,,,Balance
34910603_CNS1241A,SEVEN HILLS TRA LLC(AL AMIR C.S) - AWABI EXPRESS,"SOUTH BATINAH, AL RUSTAQ,PC:318,POB:51",Awabi,TT,,Barka,23.31224242,57.51903512,Self Service,26207.575,70.16666667,Shaqsy,True,portfolio,0.0,0,0,,,,0,,,,Balance
34910603_CN95603,MEGA MART-MUSANNAH,"SULTANANE OF OMAN, POST BOX -312 , POSTAL CODE -58, NEAR NESTO HYPER MUJAMA , AL BATINAH SOUTH",Musannah,MT,,Barka,23.74258458,57.63499287,Discounters,25928.458,18.18181818,Shaqsy,True,portfolio,4.1,442,0,,,,0,ChIJ17XClbk1jD4Rn90BRxqoQJU,,,Balance
34910603_CNS583,SHERAA AL BATNAH - WUDAM,0,Wudam,TT,,Barka,23.80839207,57.55397604,Grocery,25912.899,33.5,Shaqsy,True,portfolio,5.0,1,0,,,,0,ChIJ9YEuBQBJjD4Rmew3h0yfG94,,,Balance
34910603_CN96787,AHLAIN INTERNATIONAL - IZKI,"MUTTRAH,MINA ALFAHAL PC:116, POB:92",Izki,TT,,Nizwa,22.91573267,57.77762621,Grocery,25792.455,8.25,Jinu,True,portfolio,0.0,0,0,,,,0,,,,Balance
34910603_CN91536,ANHAR AL FAYHA-SAMAD,"MUTTRAH,PC;111, POB:3347",Samad,TT,,Nizwa,22.89194078,58.23118834,Grocery,25519.165,27.66666667,Jinu,True,portfolio,3.9,63,0,,,,0,ChIJXSxcBBbTjz4RIMQXcTix3CI,,,Balance
34910603_CN95814,GIFT BAZAAR - MUSANNA,"AL BATINAIH,MUSANNAH,P.O BOX-0, P. CODE-112,SULTANATE OF OMAN",Musannah,MT,,Barka,23.7572412,57.59058821,Discounters,25087.792,12.57142857,Shaqsy,True,portfolio,4.2,579,0,,,,0,ChIJrZ2EUdY1jD4R4THPDvrDBt8,,,Balance
34910603_CN94136,AL MARMARA UNITED COMPANY  LLC - MUDHAIBI,"MUSCAT,AS SEE,MABELA,116,121,SULTANATE OF OMAN",Mudhaibi,TT,,Nizwa,22.5696387,58.1175601,Grocery,24999.763,0.0,Jinu,True,portfolio,0.0,0,0,,,,0,,,,Balance
34910603_CN91964,ENHANCE OMAN OIL SAMAIL HOBE-SAMAIL,"BOUSHER, GHALA AL SANAIAH,PC:130, POB:1181",Sumail,TT,,Nizwa,23.3221885,57.96631689,Grocery,24674.314,0.0,Jinu,True,portfolio,0.0,0,0,,,,0,,,,Balance
34910603_CNA905,AL JAHRA HYPER MARKET - KABURAH,"NORTH BATINAH,AL KHABURA,PC:326,POB:429",Khabura,TT,,Barka,23.97407596,57.094493,Self Service,24517.824,43.58333333,Shaqsy,True,portfolio,3.7,283,0,,,,0,ChIJOZr6vk59jD4R4FTnGPK8JVY,,,Balance
34910603_CNK509,KUMUDAS HEMRAJ(SUWEIQ) - SUWAIQ,"NORTH BATINAH,AL SUWAIQ,PC:315, POB:29",Suwaiq,TT,,Barka,23.84974328,57.43937565,Grocery,24495.163,5.916666667,Shaqsy,True,portfolio,4.1,358,0,,,,0,ChIJ16-jephFjD4R8fOLZI5RR-s,,,Balance
34910603_CN96788,AHLAIN INTERNATIONAL - MANAL,"MUTTRAH,MINA ALFAHAL PC:116, POB:92",Izki,TT,,Nizwa,23.18807143,57.86257253,Grocery,23992.677,8.666666667,Jinu,True,portfolio,0.0,0,0,,,,0,,,,Balance
34910603_CN95990,BRJS SALES -RUSTAQ,"SULTANAT OF OMAN, P.O BOX -0, P.O BOX -0, RUSTAQ, AL BATINAH SOUTH,",Rustaq,MT,,Barka,23.48554581,57.45520694,Discounters,23687.008,72.5,Shaqsy,True,portfolio,0.0,0,0,,,,0,,,,Balance
34910603_CNA9282,AL BEDIYA SHOPPING - BIDIYA,"NORTH BATINAH,AL-SUWAIQ,AL BIDIYAH,316,61,SULTANATE OF OMAN",Bidaya,TT,,Barka,23.920384,57.167715,Self Service,"23,593.49",4.5,Shaqsy,True,portfolio,3.7,52,0,,,,0,ChIJifAPPXVkjD4RktIPlYEijWA,,,Balance
34910603_CNB520,BASTEEN AL-QUDS TRADING - BARKA,0,Barka,TT,,Barka,23.66686539,57.88908534,Grocery,23593.172,0.0,Shaqsy,True,portfolio,4.3,44,0,,,,0,ChIJlVMi6G3FjT4RUwLKTlNcypE,,,Balance
34910603_CN92203,FAIDH UNITED TRAD & CONT LLC - BARKAT MOUZ,"IZKI, AL DAKHILIYAH,PC:614,POB:184",Barkat Mouz,TT,,Nizwa,22.91707969,57.66562218,Grocery,23143.039,23.375,Jinu,True,portfolio,4.1,38,0,,,,0,ChIJecVbdRZXjj4R_7MDJkalLx4,,,Balance
34910603_CN95428,CAPITAL GIFT MARKET - SINAW,"NORTH BATINAH,AL SUWAIQ,AS SUWAYQ,POB:608,PC:112",Sinaw,MT,,Nizwa,22.4852391,58.02756431,Discounters,23140.739,0.0,Jinu,True,portfolio,3.9,12,0,,,,0,ChIJL8uvl6brjz4RJWL3vZBAMVc,,,Balance
34910603_CN97613,TAJ AL FALAJ - SHINAS,"NORTH BATINAH, SOHAR,PC:311, POB:303",Shinas,TT,,Sohar,24.74378,56.460853,Self Service,23092.818,41.81818182,Shaqsy,True,portfolio,4.6,33,0,,,,0,ChIJpQ61cADF9D4RUxdQl7ItFvU,,,Balance
34910603_CN90167,AL KAMIYANI ENT LLC - FAUD,0,Nizwa,WS+IS,,Nizwa,22.90458113,57.53466739,Wholesale,22620.964,0.0,Jinu,True,portfolio,0.0,0,0,,,,0,ChIJT3LmKUX7jj4R2_WzXFkZhlk,,,Balance
34910603_CN94888,NOOR EXPRESS-SHARIYAH -SAMAD,"Sultanate of Oman , Muscat, Bousher, Ghala Al Sanaiah, 130, 1811,0,00000",Samad,TT,,Nizwa,22.8455647,58.1833484,Grocery,22474.903,14.5,Jinu,True,portfolio,5.0,4,0,,,,0,ChIJNSoqPh_Njz4RigQtmsa4S4U,,,Balance
34910603_CN95853,BARKA BEACH INTERNATIONAL -BARKA,"SOUTH BATINAH,BARKA,BARKA,PC:320, POB:30",Barka,WS+IS,,Barka,23.7052043,57.8904411,Wholesale,22183.33,12.75,Shaqsy,True,portfolio,4.3,638,0,,,,0,ChIJ2SzRpnXFjT4R0A7aADwhmc8,,,Balance
34910603_CN95003,ANHAR AL FAYHA HYPER MARKET -MANAH,"MUTTRAH,PC;111, POB:3347",Manah,TT,,Nizwa,22.79173984,57.6112926,Grocery,21821.182,23.11111111,Jinu,True,portfolio,4.3,14,0,,,,0,ChIJkQB0uwT_jj4RNohxPW479vI,,,Balance
34910603_CN90393,MAKKAH HYPER MARKET - MUSANNAH,"NORTH BATINAH,AL SUWAIQ,ATH THARMAD PC:314,POB:331",Musannah,TT,,Barka,23.74516124,57.6201602,Self Service,21800.219,26.22222222,Shaqsy,True,portfolio,3.8,73,0,,,,0,ChIJ7zFrtSI1jD4RCb3mMBKPEug,,,Balance
34910603_CN95460,AL MARJAN DISCOUNT CENTRE - BIDAYA,"SOUTH BATINAH,BARKA,320,988,SULTANATE OF OMAN",Bidaya,MT,,Barka,24.342079,56.731594,Discounters,21406.162,0.0,Shaqsy,True,portfolio,0.0,0,0,,,,0,,,,Balance
34910603_CNH523,HAMEED SAWELIUM SALEM - ABU ABALI,0,Abu Bali,TT,,Barka,23.73582223,57.67714783,Grocery,21137.428,5.333333333,Shaqsy,True,portfolio,0.0,0,0,,,,0,,,,Balance
34910603_CN93971,BIG MART - NAKHL,"AL DAKHILIYA, BIDBID,FANJA, PC:612, POB:811",Nakhal,MT,,Barka,23.39954543,57.81925117,Discounters,21060.374,0.0,Shaqsy,True,portfolio,4.2,52,0,,,,0,ChIJN6YCSbp5jj4R0C1u8Gs2ffg,,,Balance
34910603_CN99292,MARTOO HYPERMARKET - RUSTAQ,"MUSCAT,AL SEEB,AL KHAWD,329,479,MUSCAT,SULTANATE OF OMAN",Rustaq,MT,,Barka,23.433569,57.421224,Discounters,20902.535,50.42857143,Shaqsy,True,portfolio,4.8,16,0,,,,0,ChIJBQP7pmsnjD4R1BK90hTSHwk,,,Balance
34910603_CNA577,AUDIOT AL KABURA - KABURAH,0,Khabura,TT,,Sohar,23.97268696,57.09437801,Grocery,20663.063,4.25,Shaqsy,True,portfolio,4.0,2422,0,,,,0,ChIJi3KDvDZ9jD4R1L1It3m-AJs,,,Balance
34910603_CN97016,BAVAS HYPERMARKET - SUBAIKY,"NORTH BATINAH, AL SUWAIQ,PC:315,POB:279",Subaikhy,TT,,Barka,23.8386632,57.38163831,Self Service,20377.091,30.33333333,Shaqsy,True,portfolio,4.0,562,0,,,,0,ChIJx_hvB3tEjD4RGE_ud3ReaD0,,,Balance
34910603_CNH5350,AL KARAMA HYPER MARKET-KHABOU - KABURAH,"SULTANATE OF OMAN,MUTTRAH,RUWI,PC:112,POB:3593, AL NOOR STREET",Khabura,TT,,Barka,23.97201203,57.09324038,Self Service,20337.354,0.0,Shaqsy,True,portfolio,3.6,198,0,,,,0,ChIJ9wJDIUl9jD4Rqoad3bhkD24,,,Balance
34910603_CNA0255,AL AALI SUPER MARKET - KATHARA,0,Khadra,TT,,Barka,23.97488915,57.03708592,Grocery,20126.986,0.0,Shaqsy,True,portfolio,0.0,0,0,,,,0,,,,Balance
34910603_CNA1445,AL ANOOD SHOPPING - MUSANNAH,"PC:312,POB:21",Tareef,TT,,Barka,23.7421619,57.62163124,Grocery,20085.543,23.875,Shaqsy,True,portfolio,4.0,96,0,,,,0,ChIJQylSeSI1jD4R0tdFXcYp9zw,,,Balance
34910603_CN93185,NAJOOM AL KHALEEJ MARKET-AL BURAYMI,"AL BURAIMI,AL BURAYMI,SULTANATE OF OMAN,POB:346,PC:512",Buraimi,MT,,Sohar,24.25831204,55.7753133,Discounters,19706.202,2.8,Shaqsy,True,portfolio,3.9,317,0,,,,0,ChIJFRzD5Bm0ij4RJwAhugXlksY,,,Balance
34910603_CN91121,MARJAN AL HAJAR SHOPPING CENTRE - RUSTAQ,"MUTTRAH,MUSCAT,PC:112, POB:454",Hazem,TT,,Barka,23.56060283,57.44994831,Grocery,19595.056,0.0,Shaqsy,True,portfolio,0.0,0,0,,,,0,,,,Balance
34910603_CND501,DOSTEEN TRADING - SUWAIQ,"NORTH BATINAH,SUWAIQ,PC:311,POB:239",Suwaiq,TT,,Barka,23.82563813,57.42099594,Grocery,"19,538.93",71.33333333,Shaqsy,True,portfolio,4.8,121,0,,,,0,ChIJqfDGBEJFjD4RKH0xqY2Tkpo,,,Balance
34910603_CNA595,ABDUL RAHIM HASSAN - MUSANNAH,"BARKA;MOBELA  BIDIYA, PC:316, POB:5",Quraim,TT,,Barka,23.78223126,57.60875565,Grocery,19492.05,8.666666667,Shaqsy,True,portfolio,0.0,0,0,,,,0,,,,Balance
34910603_CN93374,FOOD MAX HYPERMARKET - MUSANNAH,"SOUTH BATINAH,AL MUSANNA, AT TURAYF,PC:312, POB:3",Musannah,TT,,Barka,23.75261441,57.62460336,Grocery,19177.338,41.75,Shaqsy,True,portfolio,4.0,43,0,,,,0,ChIJZQS8eTU1jD4R3eDxDsgRIHI,,,Balance
34910603_CNF0011,FAIROZ AL MADEENA SHOPPING CENTRE - SOHAR,"NORTH BATINAH,LIWA,LIWA,PC:325,POB:291",Palace,TT,,Sohar,24.32250267,56.75793626,Grocery,18932.95,11.0,Shaqsy,True,portfolio,5.0,1,0,,,,0,ChIJb14Fps1diz4R9N_cRFvUSio,,,Balance
34910603_CNA1410,ANWAR  OUHI  HADETHA LL - FALAJ,0,Ouhi,TT,,Sohar,24.39546,56.68054,Grocery,18425.229,3.166666667,Shaqsy,True,portfolio,0.0,0,0,,,,0,ChIJaQ1VPQBPiz4RQ4hKQEL_Mrk,,,Balance
34910603_CN98951,LULUAT MUSCAT SHOPPING LIMITED PARTNERSHIP - MUSANNAH,0,Musannah,TT,,Barka,23.775908,57.622608,Grocery,18256.179,6.0,Shaqsy,True,portfolio,0.0,0,0,,,,0,,,,Balance
34910603_CNL023,LULU HYPERMARKET - BURAIMI,"SULTANATE OF OMAN,MUSCAT,BOUSHER, SOUTH AL KHUWAIR, PC:130,POB:436",Buraimi,LULU,,Sohar,24.24627955,55.83011611,KEY ACCOUNT,18218.179,142.25,Shaqsy,True,portfolio,4.1,2761,0,,,,0,ChIJt6SkVRG2ij4Rmi6q6c1s4L0,,,Balance
34910603_CN95496,AL FADL FOR BUSINESS -MUSANNAH,"SULTANAT OF OMAN, P.O BOX -1245, P. CODE-112, MUSANNA,AL BATINAH SOUTH",Musannah,TT,,Barka,23.75914768,57.64448344,Grocery,18047.071,7.125,Shaqsy,True,portfolio,0.0,0,0,,,,0,,,,Balance
34910603_DD95496,AL FADL FOR BUSINESS -MUSANNAH,0,Musannah,VAN,,Barka,23.762559,57.647833,Self Service,47.572,3.545454545,Saji Jacob,True,portfolio,0.0,0,0,,,,0,,,,Balance
34910603_CN91747,AL ANSARI SHOPPING - MUSANNAH,"AL BATINAH,MUSANNA,SULTANATE OF OMAN,PC:312, POB:418",Musannah,TT,,Barka,23.78314911,57.58581854,Grocery,17613.765,11.66666667,Shaqsy,True,portfolio,4.0,62,0,,,,0,ChIJ18-COG9KjD4R0tTN-z0u0TU,,,Balance
34910603_CN94837,ATYAB ALDIAYAFA TRADE-MUSANNAH,"AL BATINAH SOUTH,MUSANNA,11,314,SULTANATE OF OMAN",Musannah,TT,,Barka,23.744746,57.64577247,Grocery,17528.941,22.36363636,Shaqsy,True,portfolio,4.6,5,0,,,,0,ChIJURvXgPnLjT4Rq8kwHqwkQz4,,,Balance
34910603_CN95653,EMIRATES GIFT MARKET - SINAW,"MUSCAT,SEEB,AL HAIL,MID ROAD,79,SULTANATE OF OMAN,PC:400, POB:88",Sinaw,MT,,Nizwa,22.50720981,58.03648831,Discounters,17473.663,16.22222222,Jinu,True,portfolio,3.8,272,0,,,,0,ChIJj7iihabrjz4RHfvd-PC4hmE,,,Balance
34910603_CNK1102,KUBBA HYPERMARKET (SOHAR GATE) - SAHAM,"PC:526,POB:326",Sohar Gate,TT,,Sohar,24.22785016,56.83169868,Self Service,17337.671,34.75,Shaqsy,True,portfolio,4.0,229,0,,,,0,ChIJy0biINNgiz4R9XYFtgDmZbI,,,Balance
34910603_CNJ501,JAMIL AL MALKI TRDG - AQDHA,0,Aqdha,TT,,Barka,23.69747478,57.78178217,Grocery,17070.774,15.55555556,Shaqsy,True,portfolio,0.0,0,0,,,,0,,,,Balance
34910603_CN92243,JANOOB AL MADEENA HYPERMARKET - DIYAN,"NORTH BATINAH, AL SUWAIQ, PC:315,POB:93",Diyan,TT,,Barka,23.89206243,57.25477841,Self Service,16874.599,24.2,Shaqsy,True,portfolio,0.0,0,0,,,,0,,,,Balance
34910603_CN95986,DAY TO DAY DISCOUNT MARKET LLC-BURAIMI,"SOHAR,SOHAR,NORTH AL BATINAH,851,311,SULTANATE OF OMAN",Buraimi,MT,,Sohar,24.24245302,55.85817603,Discounters,16604.81,9.5,Shaqsy,True,portfolio,4.3,591,0,,,,0,ChIJ-7rVj0TJij4Rm_EokulsV1k,,,Balance
34910603_CN94627,AL NAWA AL JADEEDAH LLC-2-HAFEET,"NORTH BATINAH,SAHAM,HAFIT,PC:326, POB:628",Hijary,TT,,Sohar,24.05212307,56.97041901,Grocery,16556.324,44.90909091,Shaqsy,True,portfolio,0.0,0,0,,,,0,,,,Balance
34910603_CN97952,AL WATHBA MINIMART - SWADI,0,Swadi,TT,,Barka,23.730883,57.730084,Grocery,16239.274,2.0,Shaqsy,True,portfolio,5.0,5,0,,,,0,ChIJX_ZBeq7LjT4RNpC24xhjiwI,,,Balance
34910603_CNN1305,HOOR AL AIN HYPERMARKET - HO - RUSTAQ,"AL IRAQI,AL RUSTAQ,POB:46,PC:318, SULTANATE OF OMAN",Rustaq,TT,,Barka,23.48330722,57.45344003,Self Service,16236.152,63.83333333,Shaqsy,True,portfolio,3.9,235,0,,,,0,ChIJ_3nDkAcmjD4R7XfOC_zCXzI,,,Balance
34910603_CNK5201,AL JAHWARI TRDG-KHALFAN SAIF - DIYAN,"POB:231,PC:316,AL BATINA NORTH, SUWAIQ,SULTANATE OF OMAN",Dhiyan,TT,,Barka,23.8944391,57.2462822,Grocery,16185.012,0.0,Shaqsy,True,portfolio,4.0,83,0,,,,0,ChIJi-h7xahnjD4RLKYKvOv9LV4,,,Balance
34910603_CN94484,SAFA AL KHADRA HYPERMARKET-KADRA,"NORTH BATINAH,AL SUWAIQ,KHADRA,AL SAAD, PC:315, POB:322",Barka,TT,,Barka,23.8565477,57.3337479,Self Service,15972.822,28.83333333,Shaqsy,True,portfolio,5.0,2,0,,,,0,ChIJIybTTMFDjD4R7q6tX7iq-oE,,,Balance
34910603_CNA661,FAHAD SAID AL MALKI TRDG - BILLA,"AL UQDAH,SOUTH BATINAH,BARAK,PC:320,POB:134",Aqdha,TT,,Barka,23.695459,57.782135,Grocery,15876.787,0.0,Shaqsy,True,portfolio,0.0,0,0,,,,0,,,,Balance
34910603_CN91659,AL MELAZ HYPERMARKET - MUSANNAH,"BATINA,MUSANAA,PC:312, POB:152",Musannah,TT,,Barka,23.78790478,57.57479411,Grocery,15874.442,14.88888889,Shaqsy,True,portfolio,0.0,0,0,,,,0,,,,Balance
34910603_CN90308,AL AMEER SHOPPING CENTER LLC - IZKI,"IZKI, AL DAKHILIYAH, POB:620, POB:444",Sumail,MT,,Nizwa,22.93077719,57.77725317,Discounters,15872.982,5.0,Jinu,True,portfolio,3.3,11,0,,,,0,ChIJEwWO3_hQjj4RxHDF-s-STRc,,,Balance
34910603_CNS514,DUKAN MART - SUWAIQ,0,Subaikhy,TT,,Barka,23.832857,57.424659,Grocery,15872.175,0.0,Shaqsy,True,portfolio,3.7,67,0,,,,0,ChIJN8e1os1FjD4RHIoXUq29b2U,,,Balance
34910603_CN8371,AL JAZEERA INTERNATIONAL LLC LLC - SOHAR,"NORTH BATINAH, SOHAR,PC:311,POB:399,SULTANATE OF OMAN",Sohar Gate,TT,,Sohar,24.380068,56.70820661,Grocery,15704.264,0.0,Shaqsy,True,portfolio,4.0,38,0,,,,0,ChIJx8LPNRBFiz4RNxDch0DaLAk,,,Balance
34910603_CN90595,NAKHLA AL WADI SHOPPING CENTER - THARMAD,"PC:318, POB:517,THAMRT",Tharmad,TT,,Barka,23.79183142,57.51792359,Grocery,15610.48,0.0,Shaqsy,True,portfolio,0.0,0,0,,,,0,,,,Balance
34910603_CNI003,IBRAHIM KHUDA BAKSH TRADG - BURAIMI,"AL BURAIMI,PC:512, POB:18",Buraimi,WS+IS,,Sohar,24.25803117,55.79632183,Wholesale,15470.664,0.0,WS,True,portfolio,0.0,0,0,,,,0,,,,Balance
34910603_CN91000,AL WIAAM HYPERMARKET  - SUWAIQ,"NORTH BATINAH,AL SUWAIQ,AS SUWQYQ,SULTANATE OF OMAN,PC:315",Suwaiq,TT,,Barka,23.81832226,57.42153231,Grocery,15440.793,61.33333333,Shaqsy,True,portfolio,4.4,15,0,,,,0,ChIJHVyPsWRFjD4RBxIZCOVJ_iw,,,Balance
34910603_CN94706,BASAMAT AL BADIA TRADING LLC - DIYAN,"NORTH BATINAH, AL KHABURA, PC:121,POB:326",Dhiyan,TT,,Barka,23.90409193,57.21315903,Grocery,15381.023,33.0,Shaqsy,True,portfolio,0.0,0,0,,,,0,,,,Balance
34910603_CN98754,SEFLASH GIFT MARKETS - HALBAN,"""SULTANATE OF OMAN, MUSCAT, AL-HAJER, AL AMRAT, 119, 100, 0, 0""",Halban,MT,,Barka,23.635897,58.037151,Discounters,15343.241,24.0,Shaqsy,True,portfolio,0.0,0,0,,,,0,,,,Balance
34910603_CN95716,NOOR EXPRESS - AL MUGHSAR AL MUSANNA - MUSANNAH,"Sultanate of Oman , Muscat, Bousher, Ghala Al Sanaiah, 130, 1811,0,00000",Musannah,TT,,Barka,23.73672884,57.67673624,Grocery,15299.999,5.636363636,Shaqsy,True,portfolio,3.6,98,0,,,,0,ChIJff0DChDLjT4Rlmt_EDoxFBM,,,Balance
34910603_CN90014,RAWABI SINAW UNITED - SINAW,"AL SHARQIYA,IBRA,SULTANATE OF OMAN,PC:400, POB:418",Nizwa,TT,,Nizwa,22.49583957,58.02666148,Grocery,15129.203,6.25,Jinu,True,portfolio,0.0,0,0,,,,0,,,,Balance
34910603_CNE405,AL EWAN INTERNATIONAL LLC  II - FALAJ,"NORTH BATINAH,SOHAR, PC:319, POB:231",Falaj,TT,,Sohar,24.43525263,56.60813028,Self Service,15037.692,40.45454545,Shaqsy,True,portfolio,3.9,696,0,,,,0,ChIJp6_z5QpJiz4RFLne_94xpkg,,,Balance
34910603_CNH014,HALA  HAYPERMARKET - BIDIYA,"SOUTH BATINAH,AL RUSTAQ,PC:329, POB:31",Dhiyan,TT,,Barka,23.90092629,57.22047472,Self Service,14695.151,37.58333333,Shaqsy,True,portfolio,0.0,0,0,,,,0,,,,Balance
34910603_CN91184,LAVENDER HYPERMARKET - MUSANNAH,"SOUTH BATINAH,AL MUSANNA,AT TURAYF,312,3,SULTANATE OF OMAN",Barka,TT,,Barka,23.75282003,57.62450905,Grocery,14686.406,0.0,Shaqsy,True,portfolio,4.0,1208,0,,,,0,ChIJ7_EqsjQ1jD4RcnNCtZdGH2Q,,,Balance
34910603_CN5945,SAIF MOHD SAIF AL KHARUSI - AWABI,0,Awabi,TT,,Barka,23.31598732,57.54136069,Grocery,14534.955,9.0,Shaqsy,True,portfolio,0.0,0,0,,,,0,,,,Balance
34910603_CN93289,SOROUH AL MASNA INTERATIONAL LLC-MUSANNAH,"SULTANANE OF OMAN, POST BOX -191, POSTAL CODE -326, MULADHA, AL BATINAH SOUTH",Musannah,MT,,Barka,23.7579273,57.5931069,Discounters,14524.322,20.33333333,Shaqsy,True,portfolio,0.0,0,0,,,,0,,,,Balance
34910603_CN99201,FRUIT OASIS HYPERMARKET - RUSTAQ,"AL RUSTAQ, SOUTH BATINAH GOVERNORATE, OMAN",Rustaq,MT,,Barka,23.484103,57.453719,Discounters,14325.299,51.75,Shaqsy,True,portfolio,5.0,3,0,,,,0,ChIJ7fdGHwAnjD4R4o6oqMHXwpk,,,Balance
34910603_CNA231,AL FALAJ SHOPPING CENTRE - SOHAR,"NORTH BATINAH, SOHAR,PC:311, POB:303",Falaj,TT,,Sohar,24.42011959,56.61848373,Self Service,14285.161,63.08333333,Shaqsy,True,portfolio,4.0,1900,0,,,,0,ChIJUZEExHlJiz4R9qgFRDfgV2Q,,,Balance
34910603_CND505,ALBLGA SHOPPING CENTER - SUBAIKY,"POB:315,PC:315,AL BATINA SUWAIQ,SULTANATE OF OMAN",Subaikhy,TT,,Barka,23.83884535,57.3778248,Grocery,14206.852,7.875,Shaqsy,True,portfolio,4.0,562,0,,,,0,ChIJx_hvB3tEjD4RGE_ud3ReaD0,,,Balance
34910603_CN92529,WAHA AL BURAIMI SUPER MARKET LLC- BURAIMI,"SULTANATE OF OMAN, 300, 512, AL BURAIMI,",Buraimi,TT,,Sohar,24.24330442,55.77413045,Grocery,14142.019,0.0,Shaqsy,True,portfolio,3.9,145,0,,,,0,ChIJ3ygBsqa2ij4RzuqfwuA9yj0,,,Balance
34910603_CN95960,ATAYA SHOPPING CENTER- SAHAM,"SULTANTE OF OMAN, P.O BOX-3, P. CODE-312, SAHAM, AL BATINAH NORTH",Saham,MT,,Sohar,24.13627437,56.88222659,Discounters,14133.053,5.833333333,Shaqsy,True,portfolio,3.9,628,0,,,,0,ChIJY4IapeRiiz4RBeIdw2y_feQ,,,Balance
34910603_CN96009,GREEN HOUSE SHOPPING CENTER LLC - AL SUWAIQ,"SULTANTE OF OMAN, P.O BOX-261, P. CODE-315, KADRA, AL BATINAH NORTH",Suwaiq,MT,,Barka,23.85514807,57.33591902,Discounters,13954.178,6.4,Shaqsy,True,portfolio,4.0,555,0,,,,0,ChIJyR0uWhhDjD4RSnKNghAxSsA,,,Balance
34910603_CNM522,AL HIBA SHOPPING CENTER - MULADHA,0,Mualdah,TT,,Barka,23.74962392,57.57708204,Grocery,13473.613,9.454545455,Shaqsy,True,portfolio,0.0,0,0,,,,0,,,,Balance
34910603_CN95635,AL BATINA GIFT MARKET-SOHAR GATE,"SULTANANE OF OMAN, POST BOX -0, POSTAL CODE -311, SOHAR, NEAR LULU SOHAR AL BATINAH NORTH",Sohar,MT,,Sohar,24.33719479,56.72862448,Discounters,13356.832,0.0,Shaqsy,True,portfolio,3.8,486,0,,,,0,ChIJiQRqg8FEiz4RwbTOStzeAqs,,,Balance
34910603_CN95605,AL BARARY HYPERMARKET - DIYAN,"SULTANANE OF OMAN, P.O BOX -309, P. CODE-311,SUWAIQ ,AL BATINAH SOUTH,",Suwaiq,TT,,Barka,23.89420898,57.24729977,Grocery,13224.586,17.5,Shaqsy,True,portfolio,4.2,34,0,,,,0,ChIJp2kJqqNnjD4RTWolDqKe3Yc,,,Balance
34910603_CN5789,SOHAR GIFT MKT-NO-2-SOHAR,"SULTANANE OF OMAN, P.O BOX -0,P. CODE-0,SOHAR,AL BATINAH NORTH",Sohar,MT,,Sohar,24.34203977,56.73162396,Discounters,13207.723,0.0,Shaqsy,True,portfolio,4.1,130,0,,,,0,ChIJ_5rGQL1Fiz4RpTtKsQ0mMsU,,,Balance
34910603_CN94019,MUSCAT SHOPPING-FIRQ - NIZWA TYMSA,"AL SEEB,SOUTH AL HAYL, PC:114, POB:1866",Izki,TT,,Nizwa,22.8816891,57.5420356,Grocery,12928.57,0.0,Jinu,True,portfolio,4.3,679,0,,,,0,ChIJkcVYPsj7jj4R2ltdktdC8xs,,,Balance
34910603_CN96919,SALMAN AL RUMH - RUSTAQ,"POB:318,PC:318,RUSTAQ,SOUTH AL BATINAH,SULTANATE OF OMAN",Rustaq,TT,,Barka,23.3991443,57.4192738,Grocery,12874.09,6.285714286,Shaqsy,True,portfolio,4.3,1399,0,,,,0,ChIJJQGQbX2djj4RudDIJygRGc8,,,Balance
34910603_CN95119,STAR SAIHOOTH HYPERMARKET-SAHAM,"NORTH BATINAH, SHINAS, AL FALAJ,PC:322,POB:4",Saham,TT,,Sohar,24.13026319,56.85198845,Self Service,12867.421,26.36363636,Shaqsy,True,portfolio,4.1,150,0,,,,0,ChIJJaEiW_Zjiz4RQ5WGNaISgBE,,,Balance
34910603_CN95741,AL ANSARI SHOPPING -THARMAD,"AL BATINAH,MUSANNA,SULTANATE OF OMAN,PC:312, POB:418",Tharmad,TT,,Barka,23.82186922,57.50605444,Grocery,12745.488,7.285714286,Shaqsy,True,portfolio,4.6,9,0,,,,0,ChIJE9xS69dJjD4R_cv2llp6n1A,,,Balance
34910603_CN97299,HAIL HYPERMARKET - LIWA,"AL BATINAH NORTH,LIWA,LIWA,325,32,SULTANATE OF OMAN",Liwa,TT,,Sohar,24.52160088,56.5401216,Grocery,"12,493.97",3.5,Shaqsy,True,portfolio,3.8,164,0,,,,0,ChIJ9TgqZEo1iz4R3FZVusk0-60,,,Balance
34910603_CN99360,AL JAHRA HYPERMARKET - DIYAN,"NORTH BATINAH,AL KHABURA,PC:326,POB:429",Diyan,TT,,Barka,23.896711,57.242212,Grocery,"12,489.51",64.33333333,Shaqsy,True,portfolio,0.0,0,0,,,,0,,,,Balance
34910603_CN92494,NOOR AL EZZA SHOPPING CENTRE - BIDAYA,"AL BATINAH,SUWAIQ,SULTANATE OF OMAN,PC:316, POB:179",Bidaya,TT,,Barka,23.90595515,57.15539077,Grocery,"12,403.91",31.25,Shaqsy,True,portfolio,0.0,0,0,,,,0,,,,Balance
34910603_CN95712,ADHWAH MAHARA TRAD & CONT-MAHARA,"SULTANANE OF OMAN, P.O BOX -312, P. CODE-215, AL MUSANNAH, AL BATINAH SOUTH",Mahara,TT,,Barka,23.745371,57.621674,Grocery,12361.474,15.0,Shaqsy,True,portfolio,0.0,0,0,,,,0,,,,Balance
34910603_CN92415,DIAMOND ABUNDANCE ( MARASIL SHOPPING CENTER)-OQDHA,"AUGDAH, AL BATINAH SOUTH,PC:100, POB:320",Auqdah,TT,,Barka,23.69866652,57.77914666,Self Service,12324.234,0.0,Shaqsy,True,portfolio,0.0,0,0,,,,0,,,,Balance
34910603_CN90935,AL JAZEERA INTERNATIONAL LLC - AL AQARA,"NORTH BATINAH, SOHAR,PC:311,POB:399,SULTANATE OF OMAN",Agar,TT,,Sohar,24.80011804,56.44200457,Grocery,12241.981,54.41666667,Shaqsy,True,portfolio,3.8,198,0,,,,0,ChIJRaLs5E7C9D4RZhjS4JMMjc4,,,Balance
34910603_CNJ527,WADI AL JUNAINA TRDG LLC - MUSANNAH,0,Musannah,MT,,Barka,23.74998704,57.62340895,Discounters,"11,990.02",13.625,Shaqsy,True,portfolio,3.6,69,0,,,,0,ChIJ2V1CxD01jD4Rx5VTi6Hr6wc,,,Balance
34910603_CN94443,TAJ HYPERMARKET-SUBAIKY - SUWAIQ,"NORTH BATINAH, AL SUWAIQ,PC:315,POB:279",Subaikhy,TT,,Barka,23.8386632,57.38163831,Self Service,11829.653,0.0,Shaqsy,True,portfolio,0.0,0,0,,,,0,,,,Balance
34910603_CNF1062,GULF MOUNTAIN FATHIMA SHOPPING - MULADHA,"BOUSHER, SOUTH ALUDHAYABATH,PC:113,POB:643",Muladha,TT,,Barka,23.75191894,57.57660924,Self Service,"11,739.59",29.4,Shaqsy,True,portfolio,3.1,34,0,,,,0,ChIJw7LazPw1jD4R9qe5Zeubq6I,,,Balance
34910603_CNK210,AL BAYAN SHOPPING - KABURAH,"SULTANATE OF OMAN, NORTH BATINAH, AL-KHABURA, AL KHABURAH, 326, 766.",Sohar,TT,,Sohar,23.93717309,57.13331193,Self Service,"11,644.62",41.25,Shaqsy,True,portfolio,4.7,3,0,,,,0,ChIJTXAcQQBjjD4RD0-CZG3Eqzw,,,Balance
34910603_CN92530,NANA HYPER - SOHAR,"ALBATINA,SOHAR,PC:311, POB:0",Sohar,MT,,Sohar,24.35964455,56.74506401,Discounters,11583.392,27.36363636,Shaqsy,True,portfolio,4.2,63,0,,,,0,ChIJOTDRCPFbiz4RFG5Pgby0PDo,,,Balance
34910603_CNB1318,AL BADIA HYPERMARKET - SUWAIQ,"NORTH BATINAH, AL SUWAIQ, PC:316, PC:194",Subaikhy,TT,,Barka,23.84024902,57.3811276,Self Service,"11,466.04",46.58333333,Shaqsy,True,portfolio,4.0,562,0,,,,0,ChIJx_hvB3tEjD4RGE_ud3ReaD0,,,Balance
34910603_CNA554,AL ARIN TRADING - BIDIYA,"BARKA;MOBELA  BIDIYA, PC:316, POB:5",Bidaya,TT,,Barka,23.91882424,57.17397521,Self Service,11435.724,12.09090909,Shaqsy,True,portfolio,0.0,0,0,,,,0,,,,Balance
34910603_CN96667,AL EZZA SHOPPING  NEW HUWAIL,"NORTH BATINAH,SAHAM,PC:319, POB:252",New Huwail,TT,,Sohar,24.140222,56.861361,Grocery,"11,368.46",33.5,Shaqsy,True,portfolio,0.0,0,0,,,,0,,,,Balance
34910603_CN98604,MACRO HYPERMARKET - AL KHADRA,"SULTANATE OF OMAN, MUSCAT GOVERNORATE, SEEB, 0, 329, 113, AL AZAIBA.",Khadra,TT,,Barka,23.850243,57.351448,Grocery,11356.768,42.28571429,Shaqsy,True,portfolio,0.0,0,0,,,,0,,,,Balance
34910603_CNW251,WAHAT SHINAS TRDG STORES - SHINAS,"NORTH BATINAH,SHINAS,SHINAS,POB:222,PC:311, SULTANATE OF OMAN",Shinas,TT,,Sohar,24.74419644,56.46355404,Self Service,11354.149,0.0,Shaqsy,True,portfolio,3.9,282,0,,,,0,ChIJW8OevhrE9D4RrqHDuKNAggI,,,Balance
34910603_CNM1229,AL MELAZ SHOPPING CENTRE - MUSANNAH (NEAR AL TAREEF SOUQ R/A),"BATINA,MUSANAA,PC:312, POB:152",Musannah,TT,,Barka,23.74189957,57.64631413,Grocery,"11,204.63",16.375,Shaqsy,True,portfolio,3.9,80,0,,,,0,ChIJuVFaCdXKjT4RtebuJOu1qxw,,,Balance
34910603_CN92880,AL ARAB DISCOUNT MARKETS-IZKI,0,Izki,MT,,Nizwa,22.82582999,57.75508191,Discounters,11197.75,3.0,Jinu,True,portfolio,4.1,550,0,,,,0,ChIJ4V80c-lTjj4RK5R0KmENptw,,,Balance
34910603_CN95076,MAFAZ AL MUSANNAH TRADING LLC-MUSANNAH,"SULTANATE OF OMAN, AL BATANA , MUSANNAH, 7, 314",Musannah,TT,,Barka,23.76844506,57.68164675,Grocery,11092.776,5.4,Shaqsy,True,portfolio,0.0,0,0,,,,0,,,,Balance
34910603_CNS511,SOHAR BEACH BAKERY & STORES - MUSANNAH,"SOHAR, NORTH BATINAH,PC:311, POB:197",Musannah,TT,,Barka,23.75717481,57.59970979,Grocery,"11,075.29",0.0,Shaqsy,True,portfolio,3.7,93,1,,,,0,ChIJ-6-CaZs1jD4Rqaofe2N1DjM,,,Balance
34910603_CNN1308,NATIONAL MARKET SHOPPING-FALAJ,"AL BATINA,SOHAR, FALAJ AL QABAEL,SULTANATE OF OMAN,PC:322, POB:399",Falaj,TT,,Sohar,24.4242043,56.61277573,Self Service,11038.674,0.0,Shaqsy,True,portfolio,4.1,169,0,,,,0,ChIJaWH1LwRJiz4RhCOegMpoyqM,,,Balance
34910603_CN96795,AHLAIN INTERNATIONAL - SUWAIQ,"MUTTRAH,MINA ALFAHAL PC:116, POB:92",Suwaiq,TT,,Barka,23.8096635,57.4620615,Grocery,10940.403,9.4,Shaqsy,True,portfolio,0.0,0,0,,,,0,,,,Balance
34910603_CNA0266,AL SHAMS INTL SHOPPING LLC - WUDAM,"AL DAKHILIA, MUSSANNA, WUDAM AL SAHIL,PC:327,POB:614, SULTANATE OF OMAN",Wudam,TT,,Barka,23.80184953,57.55193423,Grocery,10940.287,8.2,Shaqsy,True,portfolio,0.0,0,0,,,,0,,,,Balance
34910603_CN90189,AL SOOR STAR TRADING-MUSANNAH,0,Muragha,TT,,Barka,23.75137684,57.66502377,Grocery,"10,925.46",12.85714286,Shaqsy,True,portfolio,0.0,0,0,,,,0,,,,Balance
34910603_CNZ2123,AL JAZEERA INTERNATIONAL LLC LLC - TAREEF 2,"NORTH BATINAH, SOHAR,PC:311,POB:399,SULTANATE OF OMAN",Sohar,TT,,Sohar,24.380088,56.70818278,Grocery,"10,900.30",74.08333333,Shaqsy,True,portfolio,4.0,38,0,,,,0,ChIJx8LPNRBFiz4RNxDch0DaLAk,,,Balance
34910603_CNA591,AL FAWAN SHOPPING - BARKA,"SOUTH BATINAH,BARKA,PC:320, POB:288",Barka,MT,,Barka,23.66856165,57.88059157,Discounters,10732.06,4.0,Shaqsy,True,portfolio,3.7,1036,0,,,,0,ChIJa7KatWbbjT4R82ui2msI2UY,,,Balance
34910603_CN96552,AL SALAMA HYPERMARKET - MUSANNAH,"SOUTH BATINAH,AL-MUSANNA,AL MUSANNAH,315,4,SULTANATE OF OMAN",Musannah,TT,,Barka,23.77878323,57.53481643,Self Service,10712.018,17.6,Shaqsy,True,portfolio,4.2,33,0,,,,0,ChIJ1dn9h3tJjD4RKSRsDt0iHy4,,,Balance
34910603_CN93623,AL JAHWARI INTERNATIONAL LLC. - SOHAR - SOHAR,"AL BATINA,SOHAR,PC:311, POB:470",Sohar Gate,TT,,Sohar,24.24792707,56.81541553,Grocery,10639.263,0.0,Shaqsy,True,portfolio,0.0,0,0,,,,0,,,,Balance
34910603_CNT1010A,NOOR AL ZAFARAN HYPERMARKET - SOHAR,"NORTH BATINAH, SOHAR,PC:311, POB:303",Zafaran,TT,,Sohar,24.4078353,56.7045632,Self Service,10288.439,33.54545455,Shaqsy,True,portfolio,4.1,269,0,,,,0,ChIJj16s14RPiz4RQybmISe2t3Q,,,Balance
34910603_CNM1231,AL MELAZ SHOPPING CENTRE - MUSANNAH (NEAR MUSANNAH R/A - OPP BANK MUSCAT),"BATINA,MUSANAA,PC:312, POB:152",Musannah,TT,,Barka,23.74189957,57.64631413,Grocery,10274.615,26.33333333,Shaqsy,True,portfolio,3.9,80,0,,,,0,ChIJuVFaCdXKjT4RtebuJOu1qxw,,,Balance
34910603_CN94913,AL MELAZ HYPERMARKET - WUDHAM SAHAL,"BATINA,MUSANAA,PC:312, POB:152",Musannah,TT,,Barka,23.77502285,57.64411504,Grocery,10110.805,16.28571429,Shaqsy,True,portfolio,4.2,40,0,,,,0,ChIJ7d7QhvPLjT4RO57cBXR4Hgg,,,Balance
34910603_CN92853,HORMUZ HYPERMARKET - AL KHABOURA,"AL BATINA, KHABOORA,SULTANATE OF OMAN,PC:326, POB:526",Sohar,TT,,Sohar,23.977029,57.0989194,Grocery,10107.129,11.2,Shaqsy,True,portfolio,3.8,192,0,,,,0,ChIJlQL5GIzqjj4RVXD4PBHwHzc,,,Balance
34910603_CN96079,FLOWER GIFT MARKET-NIZWA-FIRQ,"SULTANTE OF OMAN, P.O BOX-3, P. CODE-312, SAHAM, AL BATINAH NORTH",Nizwa,MT,,Nizwa,22.88782362,57.55248069,Discounters,10106.954,11.0,Jinu,True,portfolio,0.0,0,0,,,,0,,,,Balance
34910603_CN94492,KHATWAT AL AIBDAE AL RRAYIDA-AL KHABOURA,"POB:344,PC:326, NORTH BATINA,KABURA,SULTANATE OF OMAN",Kaburah,TT,,Sohar,23.9612269,57.07393908,Grocery,10069.267,0.0,Shaqsy,True,portfolio,0.0,0,0,,,,0,,,,Balance
34910603_CN99002,AJWA SHOPPING - SOHAR,0,Sohar,TT,,Sohar,24.422157,56.691278,Grocery,10026.259,6.666666667,Shaqsy,True,portfolio,5.0,1,0,,,,0,ChIJ8UNrPABPiz4RKouTVIllZ-s,,,Balance
34910603_CN98952,CENTER WDAM TRADE - WUDAM GHAF,0,Wudam,TT,,Barka,23.769167,57.545731,Grocery,9993.197,3.5,Shaqsy,True,portfolio,0.0,0,0,,,,0,ChIJG7LqSgBJjD4RfKdr3BE_1qo,,,Balance
34910603_CN94885,NOOR EXPRESS -THARMAD -THARMAD,"Sultanate of Oman , Muscat, Bousher, Ghala Al Sanaiah, 130, 1811,0,00000",Tharmad,TT,,Barka,23.786766,57.52047,Grocery,9992.183,0.0,Shaqsy,True,portfolio,0.0,0,0,,,,0,,,,Balance
34910603_CN92595,ZAD BARKAT HYPER MARKET  - RUSATAQ,"SOUTH BATINAH, AL RUSTAQ,AL HAZM PC:318",Al Sarah,TT,,Barka,23.41199512,57.35368211,Self Service,9982.842,40.75,Shaqsy,True,portfolio,4.2,233,0,,,,0,ChIJAUPXWaghjD4RliCiQK184uk,,,Balance
34910603_CN94486,TAJ HYPER MARKET- AL URAIQ - KHADRA,"NORTH BATINAH, AL SUWAIQ,PC:315,POB:279",Khadra,TT,,Barka,23.85324707,57.33720677,Self Service,9885.319,16.0,Shaqsy,True,portfolio,4.0,1018,0,,,,0,ChIJVdyU-CFDjD4RVsztHeif5Mg,,,Balance
34910603_CN95466,QATRAT AL SHAHD INVESTMENT -SUWAIQ,"SULTANAT OF OMAN, P.O BOX -160, P. CODE -312, SUWAIQ, AL BATINAH SOUTH",Suwaiq,TT,,Barka,23.78675488,57.52051958,Grocery,9880.158,0.0,Shaqsy,True,portfolio,0.0,0,0,,,,0,,,,Balance
34910603_CNS1511,SHABAB AL KHALEEJ - MULTAQA,"SOHAR,NORTH BATINAH,SOHAR,PC:311, POB:661",Muladha,TT,,Sohar,24.42042454,56.66930351,Grocery,9830.572,35.0,Shaqsy,True,portfolio,4.0,183,0,,,,0,ChIJJf-G17hPiz4RflGXP3pMXp0,,,Balance
34910603_CN95451,AL RAKA TRADING LLC-AL OQDAH -BARKA,"MUSCAT,MUTTRAH,WADI KABIR,PC:117,125,311,5005",Barka,TT,,Barka,23.699652,57.77978,Grocery,9755.48,0.0,Shaqsy,True,portfolio,0.0,0,0,,,,0,,,,Balance
34910603_CNS207A,SAIHOOTH HYPER MARKET - SOHAR,"NORTH BATINAH,AL-KHABURA,PC:326,POB:14",Sohar,TT,,Sohar,24.34751117,56.73781408,Self Service,"9,733.09",74.33333333,Shaqsy,True,portfolio,4.0,755,0,,,,0,ChIJGROWmstEiz4Rvr5gnKLTNYI,,,Balance
34910603_CN96670,AL QABAYEL DISCOUNT CENTER LLC - SUWAIQ,"MUSCAT,MABELEH,PC:111, POB:2563",Suwaiq,MT,,Barka,23.88918823,57.27203717,Discounters,9662.555,30.91666667,Shaqsy,True,portfolio,4.0,172,0,,,,0,ChIJD1bfGllnjD4RL1Pw6koXPO4,,,Balance
34910603_CNS561,DAWOOD SULEIMAN AL NASSAMY TR - RUSTAQ,0,Rustaq,TT,,Barka,23.39237091,57.42300723,Grocery,9626.852,0.0,Shaqsy,True,portfolio,4.3,1399,0,,,,0,ChIJJQGQbX2djj4RudDIJygRGc8,,,Balance
34910603_CN4197,BIPIN DHARAMSEY LLC - BARKA,"MUSCAT, PC:100, POB:670",Barka,TT,,Barka,23.66594993,57.89312536,Grocery,9581.803,12.5,Shaqsy,True,portfolio,0.0,0,0,,,,0,,,,Balance
34910603_CNS559,SALEH SAIF AL RUWAHI - RUSTAQ,0,Rustaq,TT,,Barka,23.39261775,57.42299531,Grocery,9460.835,16.57142857,Shaqsy,True,portfolio,3.0,4,0,,,,0,ChIJqQGbcconjD4RdznNTAm_aQQ,,,Balance
34910603_CN90203,Luluat Shinas Hypermarket - Shinas,"NORTH BATINAH, SHINAS, AL FALAJ,PC:322,POB:4",Shinas,TT,,Sohar,24.64390372,56.50896105,Self Service,"9,371.17",55.91666667,Shaqsy,True,portfolio,4.0,182,0,,,,0,ChIJaXKLo_3I9D4RPQt6YKBeOpY,,,Balance
34910603_CNSM0150,ENHANCE - (OMAN OIL)- FALAJ AL QABAIL COCO,"BOUSHER, GHALA AL SANAIAH,PC:130, POB:1181",Sohar,TT,,Sohar,24.41466568,56.59984549,Grocery,"9,371.04",0.0,Shaqsy,True,portfolio,0.0,0,0,,,,0,,,,Balance
34910603_CN97855,NOOR AL AQSA SHOPPING CENTRE - MUSANNAH,"AL BATINAH NORTH,BARKA,SAWMHAN,312,242,SULTANATE OF OMAN",Musannah,TT,,Barka,23.7818005,57.5907097,Self Service,9328.123,7.5,Shaqsy,True,portfolio,4.6,11,0,,,,0,ChIJW2ZzuypLjD4RPlZXW5aqWBQ,,,Balance
34910603_CN91873,KUBBA HYPERMARKET-AL KHABOURA,"PC:526,POB:326",Khabura,TT,,Sohar,24.01067951,57.04837025,Self Service,9286.25,27.42857143,Shaqsy,True,portfolio,3.8,107,0,,,,0,ChIJHZF6iU6HjD4R_tNRqR6o7Qs,,,Balance
34910603_CN91663,HALA EXPRESS SHOPPING - SAHAM,"SOUTH BATINAH,AL RUSTAQ,PC:329, POB:31",Saham,TT,,Sohar,24.11381974,56.91267966,Grocery,9254.785,16.63636364,Shaqsy,True,portfolio,4.1,87,0,,,,0,ChIJafaOK61iiz4Rt0zWGKt_4Yg,,,Balance
34910603_CNW207,AL MANAMA SHOPPING CENTER - LIWA JADEED,"AL BATINA SOUTH,LIWA,SULTANATE OF OMAN,PC:325, POB:132",Liwa,TT,,Sohar,24.51634,56.56398,Self Service,9140.286,0.0,Shaqsy,True,portfolio,0.0,0,0,,,,0,,,,Balance
34910603_CN95985,SOUQ SOHAR NEW LLC - SOHAR,"MUSCAT,MUSCAT,0,311,SULTANATE OF OMAN",Sohar,MT,,Sohar,24.34031,56.73161,Discounters,9105.681,12.41666667,Shaqsy,True,portfolio,4.1,130,0,,,,0,ChIJ_5rGQL1Fiz4RpTtKsQ0mMsU,,,Balance
34910603_CN98875,AL BARIR SHOPPING CENTER - SUWAIQ,0,Suwaiq,TT,,Barka,23.814585,57.451771,Grocery,9097.091,5.5,Shaqsy,True,portfolio,0.0,0,0,,,,0,,,,Balance
34910603_CN96439,FAST MART SHOPPING-THARMAD,"POB:112,PC:315,THARMAD,SULTANATE OF OMAN",Tharmad,TT,,Barka,23.78864688,57.51871517,Grocery,8885.689,12.1,Shaqsy,True,portfolio,4.2,31,0,,,,0,ChIJ5QiSB-VJjD4RAd1cBstCwZw,,,Balance
34910603_CN98106,AL FAWAN SHOPPING - MUSANNAH,"AL BATINAH NORTH,BARKA,BARKA,288,320,SULTANATE OF OMAN",Musannah,TT,,Barka,23.73641,57.678158,Grocery,8860.266,15.0,Shaqsy,True,portfolio,0.0,0,0,,,,0,,,,Balance
34910603_CN91774,MAKKAH HYPERMARKET - BIDAYA,"NORTH BATINAH,AL SUWAIQ,ATH THARMAD PC:314,POB:331",Bidaya,TT,,Barka,23.92085751,57.17063055,Self Service,8859.04,25.0,Shaqsy,True,portfolio,0.0,0,0,,,,0,,,,Balance
34910603_CN90072,NOOR SHINAS SHOPPING - SHINAS,"AL BATINA,SHINAS,SULTANATE OF OMAN,PC:324, POB:11",Shinas,TT,,Sohar,24.74765606,56.44854846,Grocery,8829.367,6.4,Shaqsy,True,portfolio,4.2,18,0,,,,0,ChIJWzkHpHTE9D4RuLzfawqHYAo,,,Balance
34910603_CNG10544,GRAND HYPERMARKET - SAHAM SANAYA,"MUSCAT,MUTTRAH,RUWI,PC:112, POB:4074, AL NOOR STREET, IKRAM HOUSE",Sanaya,TT,,Sohar,24.1109609,56.81972701,Self Service,"8,807.83",0.0,Shaqsy,True,portfolio,3.9,275,0,,,,0,ChIJ79Z9Tb1kiz4RWsdE3JHmtIQ,,,Balance
34910603_CN94228,AL NAWA AL JADEEDAH LLC-SAHAM,"NORTH BATINAH,SAHAM,HAFIT,PC:326, POB:628",Saham,TT,,Sohar,24.05212307,56.97041901,Grocery,"8,686.32",2.0,Shaqsy,True,portfolio,0.0,0,0,,,,0,,,,Balance
34910603_CNS1477,SANY GIFT SHOPPING - AL AWABI,0,Awabi,MT,,Barka,23.31315153,57.51769538,Discounters,"8,546.91",7.0,Shaqsy,True,portfolio,0.0,0,0,,,,0,,,,Balance
34910603_CNS1408,SALEM HAMEED RASHID CENTRE - MUSANNAH,0,Abu Bali,TT,,Barka,23.7358859,57.67703626,Grocery,"8,477.38",6.727272727,Shaqsy,True,portfolio,0.0,0,0,,,,0,,,,Balance
34910603_CN94249,AL KUBBA SANDS SHOPPING CENTER - B ARAKA,"AL BATINAH,BARKA,SULTANATE OF OMAN,PC:320, POB:654",Barka,TT,,Barka,23.69527587,57.78216779,Grocery,"8,462.46",18.27272727,Shaqsy,True,portfolio,0.0,0,0,,,,0,,,,Balance
34910603_CNZ292,AL REEM SHOPPING CENTRE - SHINAS,0,Tarif,TT,,Sohar,24.34282,56.69152,Grocery,"8,406.29",0.0,Shaqsy,True,portfolio,0.0,0,0,,,,0,,,,Balance
34910603_CNZ2124,AL JAZEERA INTERNATIONAL LLC - LIWA,"NORTH BATINAH, SOHAR,PC:311,POB:399,SULTANATE OF OMAN",Nawama,TT,,Sohar,24.61173826,56.52534502,Grocery,8334.4,21.75,Shaqsy,True,portfolio,4.0,101,0,,,,0,ChIJDT9rc4TJ9D4RyH3HVo3w2Go,,,Balance
34910603_CN94397,AL BIR COMMERCIAL CENTER - SHINAS,"SHINAS,NORTH BATINAH,SHINAS,PC:324, POB:13",Shinas,TT,,Sohar,24.7276532,56.4525681,Grocery,"8,255.84",9.4,Shaqsy,True,portfolio,4.3,32,0,,,,0,ChIJa_gpSJ7F9D4RjhLZsQDg5LI,,,Balance
34910603_CNA1044,SALEM SHOPPING - WUDAM GHAF,0,Wudam,TT,,Barka,23.77365488,57.54858274,Grocery,"8,161.66",13.5,Shaqsy,True,portfolio,0.0,0,0,,,,0,,,,Balance
34910603_CN97644,AL JAZEERA INTERNATIONAL SHOPPING LLC - CWH - FALAJ,"NORTH BATINAH, SOHAR,PC:311,POB:399,SULTANATE OF OMAN",Falaj,Others,,Sohar,24.378253,56.668306,Grocery,8104.844,8.6,Shaqsy,True,portfolio,3.0,1,0,,,,0,ChIJa01-NQBFiz4RsQ05Gsfax_U,,,Balance
34910603_CN95211,NOOR EXPRESS -SHUAIBA MUSANNA-MULADHA,"Sultanate of Oman , Muscat, Bousher, Ghala Al Sanaiah, 130, 1811,0,00000",Muladha,TT,,Barka,23.734671,57.677956,Grocery,8083.67,0.0,Shaqsy,True,portfolio,0.0,0,0,,,,0,,,,Balance
34910603_CN93010,AL JAHRA HYPERMARKET -SAHAM,"NORTH BATINAH,AL KHABURA,PC:326,POB:429",Saham,TT,,Sohar,24.1570801,56.88756102,Grocery,7930.59,38.44444444,Shaqsy,True,portfolio,4.1,144,0,,,,0,ChIJvVwNgVpiiz4RRS5Mz4_diX0,,,Balance
34910603_CN96076,ATAYA SHOPPING CENTER-SHINAS,"SULTANTE OF OMAN, P.O BOX-3, P. CODE-312, SAHAM, AL BATINAH NORTH",Shinas,MT,,Sohar,24.74319484,56.45024472,Discounters,7864.662,7.75,Shaqsy,True,portfolio,4.1,165,0,,,,0,ChIJRdimBaTF9D4RKHE3sqVd87U,,,Balance
34910603_CN91728,AL NAWA HYPERMARKET - SAHAM,"NORTH BATINAH,AL KHABURA,PC:326, POB:567",Saham,TT,,Sohar,24.08472828,56.93603644,Self Service,7854.378,35.66666667,Shaqsy,True,portfolio,4.9,7,0,,,,0,ChIJF2uCp5uDjD4RRV874qswUWE,,,Balance
34910603_CNK535,AL BADAR SHOPPING CENTRE - BARKA,0,Barka,TT,,Barka,23.70635015,57.89287741,Grocery,7788.196,30.0,Shaqsy,True,portfolio,4.4,49,0,,,,0,ChIJ0TcgIuTFjT4RWEebSiM5OR0,,,Balance
34910603_CN94918,NOOR EXPRESS - HAIL FIRQ NIZWA - FIRQ,"Sultanate of Oman , Muscat, Bousher, Ghala Al Sanaiah, 130, 1811,0,00000",Firq,TT,,Nizwa,22.86164246,57.5540175,Grocery,7659.526,6.181818182,Jinu,True,portfolio,0.0,0,0,,,,0,,,,Balance
34910603_CNA1121,ADHWA AL JUNAINA SHOPPING-BARKA,0,Barka,TT,,Barka,23.67593681,57.88704516,Grocery,"7,612.99",8.0,Shaqsy,True,portfolio,3.4,32,0,,,,0,ChIJqwWOxs7EjT4RdYQCaZvGRbQ,,,Balance
34910603_CN98922,AL DANA SHOPPING - MUSANNAH,"SULTANATE OF OMAN, NORTH AL BATINAH GOVERNORATE, KABORA, KOR ROSAL, 57, 326",Musannah,MT,,Barka,23.75586,57.57752,Discounters,7541.475,35.0,Shaqsy,True,portfolio,4.5,6,0,,,,0,ChIJE92ItM01jD4RDNmziA7yPnQ,,,Balance
34910603_CN91657,JANOOB AL MADEENA MODRN LLC - BIDAYA,"NORTH BATINAH, AL SUWAIQ, PC:315,POB:93",Bidaya,TT,,Barka,23.89244683,57.25488948,Self Service,7491.943,0.0,Shaqsy,True,portfolio,0.0,0,0,,,,0,,,,Balance
34910603_CN96785,AHLAIN INTERNATIONAL - HAIL FIRQ,"MUTTRAH,MINA ALFAHAL PC:116, POB:92",Hail Firq,TT,,Nizwa,22.86055928,57.55389087,Grocery,7469.244,9.625,Jinu,True,portfolio,0.0,0,0,,,,0,,,,Balance
34910603_CN94436,AL RABEA HYPERMARKET - LIWA,"NORTH BATINAH,SHINALSHINAS,SULTANATE OF OMAN,PC:300, POB:29",Liwa,TT,,Sohar,24.54481904,56.56082536,Grocery,7456.138,28.0,Shaqsy,True,portfolio,4.5,32,0,,,,0,ChIJEVcXa8vL9D4RGCF8WWbSM6s,,,Balance
34910603_CN5736,AL FARIS AL NABEEL TRADING - MUSANNAH,0,Barka,MT,,Barka,23.758778,57.598861,Discounters,7435.775,8.8,Shaqsy,True,portfolio,0.0,0,0,,,,0,,,,Balance
34910603_CN94451,AL JAZEERA INTERNATIONAL LLC - SOHAR GATE (MUWEYLA),"NORTH BATINAH, SOHAR,PC:311,POB:399,SULTANATE OF OMAN",Sohar Gate,TT,,Sohar,24.31942335,56.67836612,Grocery,7426.578,21.8,Shaqsy,True,portfolio,4.2,54,0,,,,0,ChIJSw5bR3ZFiz4RsRsNf2vq37k,,,Balance
34910603_CN90366,MAATHER MAJAN SHOPPING - RUSTAQ,"SOUTH BATINAH,BARKA,PC:318, POB:47",Musannah,TT,,Barka,23.55798741,57.4857292,Self Service,7426.397,12.125,Shaqsy,True,portfolio,0.0,0,0,,,,0,,,,Balance
34910603_CN97154,AL KARAMA INTERNATIONAL LLC - BURAIMI,"MUSCAT,AL SEEB,AS SEEB,119,112,SULTANATE OF OMAN",Buraimi,MT,,Sohar,24.2509774,55.823012,Discounters,"7,415.85",0.0,Shaqsy,True,portfolio,0.0,0,0,,,,0,,,,Balance
34910603_CN96074,ATAYA SHOPPING CENTER-SOHAR -SAHAM REEDA,"SULTANTE OF OMAN, P.O BOX-3, P. CODE-312, SAHAM, AL BATINAH NORTH",Saham,MT,,Sohar,24.13635042,56.88227951,Discounters,7397.411,6.2,Shaqsy,True,portfolio,3.9,628,0,,,,0,ChIJY4IapeRiiz4RBeIdw2y_feQ,,,Balance
34910603_CNF1069,FARSAN LIWA SHOPPING CENTER - LIWA,"NORTH BATINAH,LIWA,PC:322,POB:475",Liwa,TT,,Sohar,24.52016654,56.55248135,Self Service,7362.121,45.83333333,Shaqsy,True,portfolio,4.1,357,0,,,,0,ChIJ_3DvsVE1iz4RtJ-_H6uYwaU,,,Balance
34910603_CN91162,DUBAI HYPERMARKET - SAHAM,"AL SEEB, NORTH AL MOOLAH, PC:132, POB:1019",Saham,TT,,Sohar,24.14511966,56.87792301,Grocery,7325.011,33.5,Shaqsy,True,portfolio,3.9,148,0,,,,0,ChIJ7-PXvf9iiz4RRLMF6wnLSIQ,,,Balance
34910603_CN92698,MS MAX - SAHAM,"NORTH BATINAH,SAHAM,PC:319, POB:524",Saham,MT,,Sohar,24.1543746,56.88444278,Discounters,7312.237,8.9,Shaqsy,True,portfolio,4.3,1650,0,,,,0,ChIJrxskIVFiiz4RtNcnyPA2xEw,,,Balance
34910603_CN96004,TWO RIALS SHOPPING CENTER LLC- RUSTAQ,0,Rustaq,MT,,Barka,23.43811345,57.40897797,Discounters,7275.181,0.0,Shaqsy,True,portfolio,3.9,454,0,,,,0,ChIJg07dofsmjD4RSZBz2GY0wjE,,,Balance
34910603_CN97302,AL MANDOOS DISCOUNT CENTER - SOHAR,"SULTANATE OF OMAN, AL BURAIMI GOVERNORATE, AL BURAIMI, 111, 512.",Sohar,MT,,Sohar,24.38361,56.70027358,Discounters,7197.467,7.0,Shaqsy,True,portfolio,4.4,290,0,,,,0,ChIJk_Z8pxlFiz4RGuNRN84BJQU,,,Balance
34910603_CN94737,SIRAJ AL KHAIR SHOPPING CENTER-MUSANNAH,"LIZUGH, AL-DAKHILIYAH,SUMAIL,POB:600,PC:615,SULTANATE OF OMAN",Musannah,TT,,Barka,23.73900107,57.65524047,Grocery,7167.307,0.0,Shaqsy,True,portfolio,3.5,12,0,,,,0,ChIJcRRhXgXLjT4R7wVND_6Oyf4,,,Balance
34910603_CNM1328,MADINATH AL WAFA INTL LLC - SOHAR,"NORTH BATINAH,LIWA,PC:325, POB:376",Gadafan,TT,,Sohar,24.4691484,56.6010257,Self Service,7121.094,10.0,Shaqsy,True,portfolio,0.0,0,0,,,,0,,,,Balance
34910603_CN97300,X MART  - SOHAR GATE,"DHOFAR,SALALAH,SALALAH,SALALAH,144,211,SULTANATE OF OMAN",Sohar,MT,,Sohar,24.22212508,56.83726597,Discounters,7031.98,12.0,Shaqsy,True,portfolio,4.0,125,0,,,,0,ChIJ4YDNjXNhiz4R4AOAMPPc05M,,,Balance
34910603_CNJ252,JUMAIRA INTERNATIONAL LLC - SOHAR,0,Sohar,MT,,Sohar,24.3469954,56.7077179,Discounters,6935.158,0.0,Shaqsy,True,portfolio,4.1,35,0,,,,0,ChIJ9fPc_shFiz4R99jOLqZzj3U,,,Balance
34910603_CN98339,AL MEERA SELECT WEST HUMBAR - SOHAR HAMBAR,"BOUSHER, NORTH ALUDHAYBAT,SULTANATE OF OMAN, PC:102, POB:",wadi hibi,TT,,Sohar,24.317912,56.717229,Grocery,"6,904.47",4.0,Shaqsy,True,portfolio,0.0,0,0,,,,0,,,,Balance
34910603_CN95316,"AL EWAN HYPERMARKET - AL BASATIN ST, SOHAR","NORTH BATINAH,SOHAR, PC:319, POB:231",Indian School,TT,,Sohar,24.34185698,56.74367133,Self Service,6856.13,32.63636364,Shaqsy,True,portfolio,4.1,86,0,,,,0,ChIJjUVVgWVbiz4RXzVgbqgcdAM,,,Balance
34910603_CN96799,AHLAIN INTERNATIONAL - FALAJ AL QABAIL NEW-COCO,"MUTTRAH,MINA ALFAHAL PC:116, POB:92",Falaj Al Qabail,TT,,Sohar,24.41455839,56.59993734,Grocery,6774.643,11.0,Shaqsy,True,portfolio,0.0,0,0,,,,0,,,,Balance
34910603_CNB1309,AL BARAKAH SHOPPING CENTER-BARKA,0,Barka,TT,,Barka,23.7072946,57.89101409,Grocery,6596.804,0.0,Shaqsy,True,portfolio,4.0,1021,0,,,,0,ChIJn7ap5_LEjT4RRqsLjs4_KpI,,,Balance
34910603_CN95800,AL JAHRA HYPERMARKET - AQAR R/A,"NORTH BATINAH,AL KHABURA,PC:326,POB:429",Aqar,TT,,Sohar,24.80178336,56.43945008,Self Service,6531.011,15.33333333,Shaqsy,True,portfolio,0.0,0,0,,,,0,,,,Balance
34910603_CNSM0142,ENHANCE - (OMAN OIL)- SOHAR HAMBAR,"BOUSHER, GHALA AL SANAIAH,PC:130, POB:1181",Sohar,TT,,Sohar,24.34164,56.73185,Grocery,6520.313,0.0,Shaqsy,True,portfolio,4.0,262,0,,,,0,ChIJaSufBbREiz4RtU5Ni7Yw_ps,,,Balance
34910603_CN99543,PRINCE JEWEL SHOPPING CENTER - BARKA SOUTH,"AL-DAKHILIYAH,SUMAIL,LIZUGH,615,320,1,SULTANATE OF OMAN",Barka,TT,,Barka,23.700451,57.918789,Grocery,6516.208,15.0,Shaqsy,True,portfolio,3.9,42,0,,,,0,ChIJYYqmoGzDjT4RJ1Q7M0cxyYI,,,Balance
34910603_CN98121,TANNA BHAGWANJI CHHOTALAL TRAD - RUSTAQ,0,Barka,WS+IS,,Barka,23.39826,57.420612,Wholesale,6479.571,4.25,Shaqsy,True,portfolio,0.0,0,0,,,,0,ChIJn2cLVgAnjD4RpM4R9aeGrm0,,,Balance
34910603_CN94148,LOALAT ALWATAN AL BURNZIA  - RUSTAQ,"FALAJ AL ALI, SOUTH BATINAH, AL RUSTAQ,PC:318, POB:47",Hazem,TT,,Barka,23.55269503,57.45420003,Grocery,6435.476,22.55555556,Shaqsy,True,portfolio,0.0,0,0,,,,0,,,,Balance
34910603_CN90152,AL KASS SHOPPING - MUSANNAH,"AL BATINA, BARKA, PC:320, POB:237, SULTANATE OF OMAN",Musannah,TT,,Barka,23.77424471,57.6457979,Grocery,6426.336,25.8,Shaqsy,True,portfolio,3.9,58,0,,,,0,ChIJ8V5rHa3KjT4RN3wZzhNKQjM,,,Balance
34910603_CN7790,SAMAA AL SUWAIQ TRAD CO L.L.C - AL SUWAYQ,"SULTANATE OF OMAN, NORTH BATINAH, AL-SUWAIQ, AS SUWAYQ, 315, 471, 000000, 0.",Sayma,TT,,Barka,23.8495249,57.4383827,Grocery,6334.384,4.375,Shaqsy,True,portfolio,0.0,0,0,,,,0,,,,Balance
34910603_CN4198,BIPIN DHARAMSEY LLC - SOHAR,"MUSCAT, PC:100, POB:670",Sohar,TT,,Sohar,23.89236611,57.25475553,Grocery,"6,302.75",0.0,Shaqsy,True,portfolio,0.0,0,0,,,,0,,,,Balance
34910603_CN94887,NOOR EXPRESS - AL MANAL - RUSTAQ,"Sultanate of Oman , Muscat, Bousher, Ghala Al Sanaiah, 130, 1811,0,00000",Rustaq,TT,,Barka,23.55780863,57.48571636,Grocery,"6,263.96",10.7,Shaqsy,True,portfolio,4.5,2,0,,,,0,ChIJEQbQcwAvjD4RPQy1FfBnUkc,,,Balance
34910603_CNN0013,NANA HYPERMARKET - SAHAM,RAWAE AL QASBIYA TRAD & CONT,Hijary,TT,,Sohar,24.457357,56.6519719,Self Service,6248.582,0.0,Shaqsy,True,portfolio,0.0,0,0,,,,0,,,,Balance
34910603_CN94755,MAZEED INTEGRATED PROJECTS - NAKHL,"Sultanate of Oman, South Batinah, Nakhal, At Taww, 121, 435",Halban,TT,,Barka,23.58578166,58.02662064,Grocery,"6,236.47",26.5,Shaqsy,True,portfolio,0.0,0,0,,,,0,,,,Balance
34910603_CNM120,AL EZZA HYPERMARKET - SAHAM,"NORTH BATINAH,SAHAM,PC:319, POB:252",Saham,TT,,Sohar,24.14073656,56.87223135,Self Service,6233.646,82.66666667,Shaqsy,True,portfolio,3.8,654,0,,,,0,ChIJG_KQaAFjiz4RsleSuzrnj-4,,,Balance
34910603_CNF1020,AL FARSAN SHOPPING CENTER LL - FALAJ,"NORTH BATINAH,SOHAR,PC:322, POB:461",Falaj,TT,,Sohar,24.42318817,56.61154838,Self Service,6140.645,27.16666667,Shaqsy,True,portfolio,3.8,294,0,,,,0,ChIJyTuDogZJiz4R3_kNvjl6yG4,,,Balance
34910603_CN94067,AL LIWA SHOPPING-WADI AL MAAWIL,0,Al Wasat,TT,,Barka,23.52259531,57.85367401,Grocery,6092.866,8.0,Shaqsy,True,portfolio,0.0,0,0,,,,0,,,,Balance
34910603_CNA511,FAISAL SHOPPING CENTRE - SUWAIQ,"MUTTRAH, RUWI, PC:315,POB:93",Suwaiq,TT,,Barka,23.84784705,57.43883725,Self Service,5934.96,22.71428571,Shaqsy,True,portfolio,4.6,5,0,,,,0,ChIJyeZh38pFjD4RnUuTePRu8TA,,,Balance
34910603_CN90371,THAQWA HYPERMARKET LLC - KADRA,"NORTH BATINAH, AL SUWAIQ, PC:315, POB:489",Khadra,TT,,Barka,23.85740913,57.32825974,Self Service,5697.484,49.41666667,Shaqsy,True,portfolio,3.9,169,0,,,,0,ChIJt-MvZiBDjD4Rlafnw05GhvU,,,Balance
34910603_CNK1091,KHAMMIS BIN SALAM MUSHAFRY ( RAMEES BEACH SHOPPING),"MUSCAT,SEEB,RUMAIS,SULTANATE OF OMAN,PC:320, POB:407",Rumais,TT,,Barka,23.6861137,57.9982174,Grocery,"5,673.48",0.0,Shaqsy,True,portfolio,3.8,103,0,,,,0,ChIJEyhKV1DdjT4RUi7OevDzV6s,,,Balance
34910603_CN92294,HAY AL AMJAD HYPERMARKET - AWABI,"MUSANDAM, KHASAB,PC:811, POB:148",Hay Alamjad,TT,,Barka,23.35146344,57.48681723,Grocery,"5,603.95",11.5,Shaqsy,True,portfolio,4.2,109,0,,,,0,ChIJ2QqAGoCDjj4ROu9zPFCagFM,,,Balance
34910603_CN93541,VILLAGE HYPERMARKETS - MULTAQA,"AL BATNAH NORTH,SOHAR,POB:7,PC:327,SULTANATE OF OMAN",wadi hibi,TT,,Sohar,24.41048983,56.65700265,Grocery,"5,585.64",39.33333333,Shaqsy,True,portfolio,3.8,342,0,,,,0,ChIJx4su1zZPiz4R0FekGI2OXSI,,,Balance
34910603_CN90074,MAKKAH HYPER(DOHA SHOPPING) - LIWA,"NORTH BATINAH,AL SUWAIQ,ATH THARMAD PC:314,POB:331",Liwa,TT,,Sohar,24.51634,56.56269,Self Service,"5,486.38",17.8,Shaqsy,True,portfolio,4.2,37,0,,,,0,ChIJt7MnIlNLiz4RtTEY0cyC96o,,,Balance
34910603_CN91743,WAHAT AL KASFA SHOPPING CENTRE - RUSTAQ,"SULTANATE OF OMAN, MUSCAT,PC:114, POB:637, FANJA, 0, 0",Nakhal,TT,,Barka,23.38830855,57.42200244,Self Service,"5,464.54",41.75,Shaqsy,True,portfolio,3.8,135,0,,,,0,ChIJjXJR-LMnjD4RM1ghCCKggHU,,,Balance
34910603_CN91385,AL QASBEA HYPERMARKET - QASBEA,0,Suq,TT,,Sohar,24.01006154,57.06648571,Grocery,5382.135,12.25,Shaqsy,True,portfolio,0.0,0,0,,,,0,,,,Balance
34910603_CN98982,DELMA DISCOUNT CENTER - SAHAM,"NORTH BATINAH,SAHAM,KHOUR AL HAMAM,319,SULTANATE OF OMAN",Saham,MT,,Sohar,24.1310729,56.8944691,Discounters,"5,336.39",28.5,Shaqsy,True,portfolio,3.8,559,0,,,,0,ChIJ5x-mPupiiz4RcrtLNXbv6z4,,,Balance
34910603_CN97676,MALL MART -ZAWAH SOHAR AL ALAMIYA - SOHAR,"AL BATINAH NORTH,BARKA,BARKA,208,320,SULTANATE OF OMAN",Sohar,MT,,Sohar,24.3001779,56.7774693,Discounters,"5,199.01",5.333333333,Shaqsy,True,portfolio,4.1,272,0,,,,0,ChIJA5NQbQBdiz4RmL97bg__OWM,,,Balance
34910603_CN98946,ANWAR AL BASAMI SHOPPING - RUSATAQ,0,Rustaq,TT,,Barka,23.392237,57.423119,Grocery,5115.622,2.5,Shaqsy,True,portfolio,4.3,42,0,,,,0,ChIJ0cv0fH2djj4Rusf1TzFqWfQ,,,Balance
34910603_CNA035,BAGDHAD SHOPPING CENTER - RUSTAQ,BAGDHAD SHOPPING CENTRE L.L.C,Rustaq,TT,,Barka,23.40774738,57.41934225,Grocery,5114.885,12.33333333,Shaqsy,True,portfolio,0.0,0,0,,,,0,,,,Balance
34910603_CN96193,LONDON CENTRE - SINAW,"Sultanate of Oman , Muscat, 0, 500, 886, 511",Sinaw,MT,,Nizwa,22.50451843,58.03237835,Discounters,"5,015.97",6.625,Jinu,True,portfolio,4.1,71,0,,,,0,ChIJCxwzaFvrjz4RnmAKU_Khg-0,,,Balance
34910603_CNZ746A,ABNA FRESH HYPERMARKET - SOHAR,"PC:961, POB:112",Zuwara,TT,,Sohar,24.30731588,56.76851101,Self Service,"4,996.17",19.16666667,Shaqsy,True,portfolio,3.9,347,0,,,,0,ChIJXZC3ZOtciz4RG31ke2Be52U,,,Balance
34910603_CN96036,AYOUB MOSADEGH TRADING(MS MAX)-BARKA,"AL-BURAIMI,ALBURAYMI,512,0,SULTANATE OF OMAN",Khabura,MT,,Barka,23.66291035,57.9099533,Discounters,4993.212,35.7,Shaqsy,True,portfolio,0.0,0,0,,,,0,,,,Balance
34910603_CN95516,AL BADIA HYPERMARKET-KADRA,"NORTH BATINAH, AL SUWAIQ, PC:316, PC:194",Kadra,TT,,Barka,23.88163932,57.28882753,Grocery,4990.886,26.81818182,Shaqsy,True,portfolio,0.0,0,0,,,,0,,,,Balance
34910603_CN93803,DEAL CENTER - AQAR,"SULTANATE OF OMAN, P.O BOX -0, P.O BOX -325, SHINAS, AL BATINAH NORTH",Al Aqar,TT,,Sohar,24.83206,56.42599,Grocery,4985.048,0.0,Shaqsy,True,portfolio,5.0,6,0,,,,0,ChIJ01ALS_fp9D4RK0p4L4ASvtM,,,Balance
34910603_CN92857,AL JAZEERA INTERNATIONAL LLC - HAFEET,"NORTH BATINAH, SOHAR,PC:311,POB:399,SULTANATE OF OMAN",Hijary,TT,,Sohar,24.01006154,57.06648571,Grocery,4868.166,16.09090909,Shaqsy,True,portfolio,0.0,0,0,,,,0,,,,Balance
34910603_CN97233,DEVELOPMENT AND MODERNITY TRADING - RUMAIS NEW,"SULTANATE OF OMAN, GOVERNORATE OF NORTH SHARQIYAH, MUDHAIBI, MUDHAIBI, 420, 18",Barka,WS+IS,,Barka,23.60605832,58.02154633,Wholesale,4750.272,3.75,Shaqsy,True,portfolio,0.0,0,0,,,,0,,,,Balance
34910603_CN96155,NOOR EXPRESS MODERN SAHAM,"Sultanate of Oman , Muscat, Bousher, Ghala Al Sanaiah, 130, 1811,0,00000",Saham,TT,,Sohar,24.19266276,56.85804141,Self Service,4739.198,2.0,Shaqsy,True,portfolio,0.0,0,0,,,,0,,,,Balance
34910603_CNS1241,SEVEN HILLS LLC - RUSTAQ,"SOUTH BATINAH, AL RUSTAQ,PC:318,POB:51",Rustaq,TT,,Barka,23.43275184,57.42192568,Self Service,4694.559,39.33333333,Shaqsy,True,portfolio,5.0,1,0,,,,0,ChIJcfVB1REnjD4RHhkA8EoIlWo,,,Balance
34910603_CN96944,FADAK SHOPPING - AL BURAYMI,"POB:634,PC:512,BURAIMI,SULTANATE OF OMAN",Buraimi,TT,,Sohar,24.24946395,55.78301643,Grocery,4519.884,0.0,Shaqsy,True,portfolio,3.8,16,0,,,,0,ChIJbajLMhu0ij4R7yf8VUpMfuQ,,,Balance
34910603_CN95025,NOOR EXPRESS MODERN - SAHAM,"Sultanate of Oman , Muscat, Bousher, Ghala Al Sanaiah, 130, 1811,0,00000",Sanaya,TT,,Sohar,24.19271,56.85802,Grocery,4517.238,9.0,Shaqsy,True,portfolio,0.0,0,0,,,,0,,,,Balance
34910603_CN94210,AL FAZAL SHOPPING CENTER - BARKA,"POB:37,PC:320, SOUTH BATINAH,BARKA,BARKA,SULTANATE OF OMAN",Barka,TT,,Barka,23.69351943,57.88788522,Grocery,4500.069,16.2,Shaqsy,True,portfolio,3.8,5,0,,,,0,ChIJ_fqra33FjT4R9IsKvD6BCmY,,,Balance
34910603_CN94713,AL RAWASI SHOPPING CENTER-AL SUWAIQ,"Sultanate of Oman , Muscat, Al Batinah, Suwai, 656, 315",Suwaiq,TT,,Barka,23.84076653,57.46876625,Grocery,4447.345,20.25,Shaqsy,True,portfolio,3.9,30,0,,,,0,ChIJUzqKqmhPjD4RHDOADfoSTqU,,,Balance
34910603_CN98628,FREE MART SHOPPING - RUSTAQ,0,Rustaq,MT,,Barka,23.407218,57.419921,Discounters,4401.93,27.5,Shaqsy,True,portfolio,3.9,270,0,,,,0,ChIJS_QVBfUnjD4RLsmILXfee50,,,Balance
34910603_CN98004,SUPER MAX DISCOUNT CENTRE - FALAJ,"AL BATINAH SOUTH,SOHAR,SOHAR,311,SULTANATE OF OMAN",Falaj,MT,,Sohar,24.4191867,56.6043148,Discounters,4380.601,18.83333333,Shaqsy,True,portfolio,4.1,62,0,,,,0,ChIJNzhWQABJiz4RQY3kpQpTOd0,,,Balance
34910603_CNW506,WUDAM SHOPPING - WUDAM,0,Wudam,TT,,Barka,23.8086981,57.551785,Grocery,4347.401,0.0,Shaqsy,True,portfolio,4.0,1,0,,,,0,ChIJyUdqLwBJjD4RtY7lYXIElq0,,,Balance
34910603_CN95403,AL JAZEERA INTERNATIONAL LLC - TAREEF,"NORTH BATINAH, SOHAR,PC:311,POB:399,SULTANATE OF OMAN",Tarif,TT,,Sohar,24.36393,56.71994,Grocery,4328.397,33.625,Shaqsy,True,portfolio,4.0,435,0,,,,0,ChIJ1Z1ofiBFiz4RGbfSi-Uq4I4,,,Balance
34910603_CN90553,AFAQ AL KHADRA NATIONAL TRADING - KADRA,"NORTH BATINAH,AL SUWAIQ,315,132,SULTANATE OF OMAN",Kadra,TT,,Sohar,23.86924129,57.30655965,Grocery,4326.298,4.5,Shaqsy,True,portfolio,0.0,0,0,,,,0,,,,Balance
34910603_CN98201,AL MEERA SELECT TWIN HOOR  - SUBAIKY,"BOUSHER, NORTH ALUDHAYBAT,SULTANATE OF OMAN, PC:102, POB:",Subaikhy,TT,,Barka,23.70933,57.239669,Grocery,4295.832,21.8,Shaqsy,True,portfolio,3.9,8,0,,,,0,ChIJ8YvGYgBrjD4R_WxS904lspE,,,Balance
34910603_CN93129,SAHWA SHOPPING -BARKA,"320,907,SULTANATE OF OMAN",Barka,TT,,Barka,23.67324047,57.89973998,Grocery,4248.647,11.8,Shaqsy,True,portfolio,3.9,35,0,,,,0,ChIJ8WN6MQ7FjT4RMJqk_kpAytE,,,Balance
34910603_CN95663,AL BAYSAN SHOPPING CENTER-BARKA SOUTH,"SULTANANE OF OMAN, P.O BOX -0, P. CODE -112, BARKA, AL BATINAH SOUTH",Barka South,VAN,,Barka,23.6645924,57.90345079999999,Grocery,4209.413,0.0,Nobey,True,portfolio,4.1,2864,0,,,,0,ChIJZ5CYUk7bjT4Rd3bMBYTvjtg,,,Balance
34910603_CN91131,NANA HYPER MARKET - LIWA,RAWAE AL QASBIYA TRAD & CONT,Liwa,TT,,Sohar,24.5212673,56.540398,Self Service,4184.969,0.0,Shaqsy,True,portfolio,3.8,164,0,,,,0,ChIJ9TgqZEo1iz4R3FZVusk0-60,,,Balance
34910603_CN96323,MAJAN DISCOUNT MARKET - AWABI,0,Barka,MT,,Barka,23.32538044,57.50522702,Discounters,4113.688,5.0,Shaqsy,True,portfolio,0.0,0,0,,,,0,,,,Balance
34910603_CN97623,AL SALAMA HYPERMARKET - SWADI,"SOUTH BATINAH,AL-MUSANNA,AL MUSANNAH,315,4,SULTANATE OF OMAN",Swadi,TT,,Barka,23.7574186,57.59313023,Self Service,4089.586,27.0,Shaqsy,True,portfolio,0.0,0,0,,,,0,,,,Balance
34910603_CN97734,SHAH CHETAN & PARTNERS TRAD.CO.LLC - SOHAR,"AL BATINAH SOUTH,SOHAR,SOHAR,369,119,SULTANATE OF OMAN",Sohar,TT,,Sohar,24.36649937,56.74673825,Grocery,4084.703,4.181818182,Shaqsy,True,portfolio,5.0,2,0,,,,0,ChIJxz9d0Q5Fiz4Rut4qpp5uuwY,,,Balance
34910603_CNB1310,BAWABET AL MADEENA SHOPPING - SOHAR,"NORTH BATINAH, SOHAR,PC:325, POB:358",Sohar Gate,TT,,Sohar,24.23170825,56.82806804,Grocery,4045.034,20.33333333,Shaqsy,True,portfolio,4.5,424,0,,,,0,ChIJPWAmizJniz4Ry2RIHM2ZdgY,,,Balance
34910603_CNH202,HARIDAS JIVRAJ JAVA & CO - SOHAR,"NORTH BATINAH,SOHAR,SOHAR,SULTANATE OF OMAN,PC:311, POB:32",Sohar,WS+IS,,Sohar,24.36651137,56.74668277,Wholesale,4035.978,0.0,Shaqsy,True,portfolio,3.8,6,0,,,,0,ChIJayS_bQdbiz4Rv4eDuQd6Jdc,,,Balance
34910603_CN99565,AL MALKI HYPERMARKET - BILLA,"SULTANATE OF OMAN, SOUTH BATINAH, BARKA, AL BILLAH, 320, 112.",Billa,TT,,Barka,23.704009,57.767029,Grocery,4028.683,85.0,Shaqsy,True,portfolio,0.0,0,0,,,,0,,,,Balance
34910603_CN94281,SHINAS DEVELOPMENT CO.-BARKA,"SHINAS,NORTH BATINAH,SHINAS,SULTANATE OF OMAN,PC:314,POB:48",Barka,TT,,Barka,24.7464427,56.4716415,Self Service,4026.968,0.0,Shaqsy,True,portfolio,3.9,588,0,,,,0,ChIJGyIiYR3E9D4RkjnFj3p8waQ,,,Balance
34910603_CN96431,NOOR EXPRESS-AL WAJAJA - AL BHAJA ST,"Sultanate of Oman , Muscat, Bousher, Ghala Al Sanaiah, 130, 1811,0,00000",Sanaya,TT,,Sohar,24.80091658,56.21414963,Grocery,4006.306,11.5,Shaqsy,True,portfolio,0.0,0,0,,,,0,,,,Balance
34910603_CNA567,AL KEFAH FOOD STUFF - RUSTAQ,0,Rustaq,TT,,Barka,23.4835075,57.45361332,Grocery,3926.281,17.09090909,Shaqsy,True,portfolio,4.0,363,0,,,,0,ChIJJ6FOvQgmjD4RbxwK6smnD-k,,,Balance
34910603_CN96545,AL AFALAJ AL AALI CO.SPC - AL KHADRA,"SULTANTE OF OMAN, P.O BOX-315, P. CODE-315, SUWAIQ, AL BATINAH SOUTH",Khadra,TT,,Barka,23.8633915,57.3142545,Grocery,3882.662,0.0,Shaqsy,True,portfolio,0.0,0,0,,,,0,,,,Balance
34910603_CN98066,AL MEERA SELECT  LIWA - LIWA,"BOUSHER, NORTH ALUDHAYBAT,SULTANATE OF OMAN, PC:102, POB:",wadi hibi,TT,,Sohar,24.501503,56.50455,Grocery,3878.71,2.0,Shaqsy,True,portfolio,0.0,0,0,,,,0,,,,Balance
34910603_CN92205,AL TAEYF SHOPPING-SUWAIQ,"AL BATINA, SUWAIQ, PC:316, POB00",Tharmad,TT,,Barka,23.82782478,57.42974705,Grocery,3863.194,0.0,Shaqsy,True,portfolio,0.0,0,0,,,,0,,,,Balance
34910603_CN96582,ONE BILLION HYPERMARKET-BILLA,"SULTANTE OF OMAN, P.O BOX-0, P.O BOX -0, BARKA, AL BATINAH SOUTH",Billa,MT,,Barka,23.71183,57.753616,Discounters,3833.096,10.0,Shaqsy,True,portfolio,0.0,0,0,,,,0,,,,Balance
34910603_CN91668,STOP & SHOP HYPERMARKET -AWABI,"MUSCAT, MUTTRAH,RUWI,PC:323,POB:118",Awabi,TT,,Barka,23.42042286,57.81660239,Self Service,3750.264,45.625,Shaqsy,True,portfolio,4.0,2,0,,,,0,ChIJlUqjUgB5jj4Retc2IWoL7jI,,,Balance
34910603_CNB0014,BURJ HAFEET SHIOPPING-HAFEET - HAFEET,"NORTH BATINAH,SHAHAM,326,155,SULTANATE OF OMAN",Sohar,TT,,Sohar,24.0477382,56.98390745,Self Service,3743.8,6.666666667,Shaqsy,True,portfolio,0.0,0,0,,,,0,ChIJA3LeGQCDjD4Rx8VPjYbP_r4,,,Balance
34910603_CN95456,MANAR BARKA SHOPPING - BARKA,0,Barka,TT,,Barka,23.705121,57.890547,Grocery,3729.016,12.16666667,Shaqsy,True,portfolio,4.4,15,0,,,,0,ChIJXYDIX-PFjT4RuuhmY_ix75s,,,Balance
34910603_CN96033,ATLAS DISCOUNT CENTER LLC-THARMAD,"SULTANATE OF OMNA, P.O BOX-11, P. CODE-315, THARMAD,AL BATINAH SOUTH",Musannah,MT,,Barka,23.79825912,57.49610336,Discounters,3665.011,24.22222222,Shaqsy,True,portfolio,4.0,179,0,,,,0,ChIJ9w04VwpJjD4R3kCMYA0L5uw,,,Balance
34910603_CN98136,AL MEERA SELECT SHINAS - SHINAS,"BOUSHER, NORTH ALUDHAYBAT,SULTANATE OF OMAN, PC:102, POB:",Shinas,TT,,Sohar,24.78158,56.33722,Grocery,3662.304,10.0,Shaqsy,True,portfolio,0.0,0,0,,,,0,,,,Balance
34910603_CN98986,TOOBA INTERNATIONAL TRADE LLC - SHINAS,"SULRANATE OF OMAN,NORTH BATINAH,SHINAS,AN NUMA,322,222",wadi hibi,TT,,Sohar,24.617089,56.525037,Grocery,3528.371,35.66666667,Shaqsy,True,portfolio,5.0,3,0,,,,0,ChIJgxNxOgDJ9D4RIqVrXVqemH4,,,Balance
34910603_CN95640,AL GAWARI SHOPPING - NAKHL,"SULTANATE OF OMAN, SOUTH BATINAH, BARKA, BARKA, 320, 323.",Nakhal,TT,,Barka,23.41608,57.824247,Grocery,3487.289,40.33333333,Shaqsy,True,portfolio,4.7,10,0,,,,0,ChIJ_7PfWmx5jj4RwI4t51q1TOA,,,Balance
34910603_CN6048,AFNAN RUSTAQ TRD - RUSTAQ,"SOUTH BATINAH,AL RUSTAQ,AR RUSTAQ,SULTANATE OF OMAN,PC:318, POB:215",Rustaq,TT,,Barka,23.434965,57.421264,Grocery,3480.589,5.8,Shaqsy,True,portfolio,0.0,0,0,,,,0,ChIJMY6uAwAnjD4RkghLE6CBCHM,,,Balance
34910603_CN94302,ALBADAYIL ALUWLAA ALEALAMIA JOINT PARTNERSHIP - SHINAS,"BATNAH,SHINAS,POB:51,PC:324,SULTANATE OF OMAN",Hospital,TT,,Sohar,24.7068633,56.4572865,Self Service,3426.421,0.0,Shaqsy,True,portfolio,0.0,0,0,,,,0,,,,Balance
34910603_CN91742,AL TAMAM SHOPPING CENTER-NAKHL,"SULTANATE OF OMAN, MUSCAT,PC:114, POB:637, FANJA, 0, 0",Nakhal,TT,,Barka,23.39903397,57.8188873,Self Service,3377.375,44.16666667,Shaqsy,True,portfolio,4.1,168,0,,,,0,ChIJN5pEvJt7jj4RtDKhxzrUBKM,,,Balance
34910603_CN98850,ALAA INTERNATIONAL CITY LLC - BARKA,"AL BATINAH SOUTH,BARKA,BARKA,320,66,SULTANATE OF OMAN",Barka,TT,,Barka,23.707269,57.890956,Grocery,3333.898,3.857142857,Shaqsy,True,portfolio,0.0,0,0,,,,0,,,,Balance
34910603_CNH1193,HILAL HAMED AL RIYAM - NAKHEEL,0,Nakhal,TT,,Barka,23.3958682,57.82061937,Grocery,3314.047,0.0,Shaqsy,True,portfolio,4.4,2383,0,,,,0,ChIJV8otDKlwjj4Rh3ZD6Id0etI,,,Balance
34910603_CN95980,RED AGATE STONE TRADING LLC - BARKA,0,Barka,VAN,,Barka,23.7919078,57.5128509,Grocery,3313.364,11.33333333,Nobey,True,portfolio,0.0,0,0,,,,0,,,,Balance
34910603_CN95610,ALEATIQ AL MUTAMAYIZA TRAD-BARKA,"SULTANANE OF OMAN, P.O BOX -323,P. CODE -129,WADI MAAWAL,AL BATINAH SOUTH",Barka,WS+IS,,Barka,23.66508246,57.9505844,Wholesale,3284.215,10.5,Shaqsy,True,portfolio,0.0,0,0,,,,0,,,,Balance
34910603_CN99658,FRIENDS HYPERMARKET - AL AWABI,"SULTANATE OF OMAN, AD DAKHILIYAH GOVERNORATE, BAHLA, NAFA, 600, 6006",Awabi,TT,,Barka,23.31389,57.516792,Grocery,3278.066,56.0,Shaqsy,True,portfolio,4.8,4,0,,,,0,ChIJ4dktDACFjj4RJve9k9J-X04,,,Balance
34910603_CN92721,AL TUQA AL RAEDA - RUSATAQ,"SOUTH BATINAH,AL RUSTAQ,AR RUSTAQ,SULTANATE OF OMAN,PC:329, POB:400",Khafdi,TT,,Barka,23.42531148,57.2870832,Grocery,3257.549,20.375,Shaqsy,True,portfolio,0.0,0,0,,,,0,,,,Balance
34910603_CNT2009,MAKAH HYPER MARKET - SAHAM,"NORTH BATINAH,AL SUWAIQ,ATH THARMAD PC:314,POB:331",Saham,KEY ACCOUNT ,,Sohar,24.1437138,56.87592018,Rest Of Key Accounts,3248.337,49.66666667,Shaqsy,True,portfolio,3.7,559,0,,,,0,ChIJYYJSKgBjiz4RMMwPKhU8G8s,,,Balance
34910603_CN93150,TAJ DELUXE SHOPPING - JAZMA - KHADRA,"NORTH BATINAH, AL SUWAIQ,PC:315,POB:279",Kadra,VAN,,Sohar,23.861558,57.388912,Grocery,3237.474,0.0,Anil,True,portfolio,4.1,114,0,,,,0,ChIJc28WgpFEjD4RTTd_e7n0vUY,,,Balance
34910603_CNW01312,WELFARE MARKETS ( KR ) - STF SOHAR,"SULTANATE OF OMAN, MUSCAT, MUSCAT, MUSCAT, 100, 19.",Sohar,TT,,Sohar,24.34257854,56.73191616,Grocery,3236.852,10.2,Shaqsy,True,portfolio,0.0,0,0,,,,0,,,,Balance
34910603_CNC599,SCENERY OF BATNA TRADING - NEAR TARIF MASJID - MUSANNAH,"SULTANATE OF OMAN, P.O BOX-0, P.O BOX -0, MUSANNAH, AL BATINAH SOUTH",Tareef,TT,,Barka,23.7486783,57.622865,Grocery,3235.147,4.166666667,Shaqsy,True,portfolio,4.6,68,0,,,,0,ChIJ_YwM7hY1jD4RnDjWDKcQXPg,,,Balance
34910603_CN98838,AL ZAEIM SHOPPING - RUMAIS,0,Rumais,VAN,,Barka,23.691347,58.04903,Grocery,3210.073,16.55555556,Nobey,True,portfolio,0.0,0,0,,,,0,,,,Balance
34910603_CN93392,ASTOORAH AL SALAM LLC (EASY SHOPPING) - BARKA,"POB:1961,PC:112,MUSCAT,BOUSEHER,SULTANATE OF OMAN",Barka,VAN,,Barka,23.70064987,57.87095487,Grocery,3164.478,12.66666667,Nobey,True,portfolio,4.2,6,0,,,,0,ChIJD1MoLgDFjT4RTCxYrZh7SX4,,,Balance
34910603_CN94890,NOOR EXPRESS - SOHAR TAREEF,"Sultanate of Oman , Muscat, Bousher, Ghala Al Sanaiah, 130, 1811,0,00000",Tarif,TT,,Sohar,24.36041932,56.7225846,Grocery,3118.657,0.0,Shaqsy,True,portfolio,0.0,0,0,,,,0,,,,Balance
34910603_CNSM0126,ENHANCE - (OMAN OIL)- SAQSUQ,"BOUSHER, GHALA AL SANAIAH,PC:130, POB:1181",Saqsooq,TT,,Barka,23.6193963,57.86663465,Grocery,3116.886,0.0,Shaqsy,True,portfolio,4.0,553,0,,,,0,ChIJf7yv4DzbjT4RthY0laLxYj0,,,Balance
34910603_CN93186,PRINCE JEWEL -BARKA,"AL-DAKHILIYAH,SUMAIL,LIZUGH,615,320,1,SULTANATE OF OMAN",Barka,TT,,Barka,23.70189628,57.93318142,Grocery,3089.95,9.888888889,Shaqsy,True,portfolio,3.9,42,0,,,,0,ChIJYYqmoGzDjT4RJ1Q7M0cxyYI,,,Balance
34910603_CN96012,AL MARJAN DISCOUNT CENTER LLC-BARKA SOUTH,"SOUTH BATINAH,BARKA,320,988,SULTANATE OF OMAN",Barka,MT,,Barka,23.69617971,57.78514625,Discounters,3076.69,15.91666667,Shaqsy,True,portfolio,4.0,1247,0,,,,0,ChIJi0iykSjPjT4R9JTbmaUXULc,,,Balance
34910603_CNS714,SHANAZ & HUSSAIN SHOPPING - BARKA,"AL SEEB, NORTH, AL AMABILAH,PC:121,POB:679",Barka,TT,,Barka,23.70306098,57.89286647,Self Service,3060.649,52.75,Shaqsy,True,portfolio,4.0,4,0,,,,0,ChIJfZQ-iqDFjT4RKK7oVcgskfo,,,Balance
34910603_CNG032,GHADEER SHOPPING CENTER - AL KHADRA,"MUSCAT,BOUSHER,MADINAT ALSULTAN QABOOS,SULTANATE OF OMAN,PC:115, POB:672",Khadra,TT,,Barka,23.8585054,57.3297509,Grocery,3026.264,15.09090909,Shaqsy,True,portfolio,4.0,555,0,,,,0,ChIJyR0uWhhDjD4RSnKNghAxSsA,,,Balance
34910603_CNA504,AL HOUZ TRADING - RUSTAQ,0,Rustaq,TT,,Barka,23.38836866,57.42263454,Grocery,2997.49,9.4,Shaqsy,True,portfolio,0.0,0,0,,,,0,,,,Balance
34910603_CN94933,TELAL SHOPPING -2-BUWAN BARKA,"MUSCAT,SEEB,SULTANATE OF OMAN,PC:112, POB:1105",Haradi,TT,,Barka,23.70397898,57.91374616,Grocery,2989.726,14.0,Shaqsy,True,portfolio,0.0,0,0,,,,0,,,,Balance
34910603_CN96796,AHLAIN INTERNATIONAL - SAQSUQ,"MUTTRAH,MINA ALFAHAL PC:116, POB:92",Saqsuq,TT,,Barka,23.6161255,57.8659565,Grocery,2986.012,7.333333333,Shaqsy,True,portfolio,4.0,553,0,,,,0,ChIJf7yv4DzbjT4RthY0laLxYj0,,,Balance
34910603_CN92862,ADVANCE GATE INVESTMENT LLC - BARKA,"AL SEEB,SOUTH AL HAYL, PC:114, POB:1866",Sallaha,TT,,Barka,23.66543163,57.95247584,Grocery,2917.074,0.0,Shaqsy,True,portfolio,0.0,0,0,,,,0,,,,Balance
34910603_CNM0072,MUSCAT GOLDEN HYPER MARKET LLC - BU ALI,"SOUTH AL SHARQIYA, JALAN BANI BU ALI, PC:416,POB:436",Buali,TT,,Al Kamil,22.01859875,59.33684397,Self Service,2906.155,49.33333333,Jinu,True,portfolio,4.1,732,0,,,,0,ChIJBYARC2NEmj4RVsCJplfFYEc,,,Balance
34910603_CNA00954,AL SILASILA RETAIL (SPAR)-SOHAR,"MUSCAT,PC:100, POB:19,SULTANATE OF OMAN",Sohar,TT,,Sohar,24.32046,56.74931,Grocery,2894.562,0.0,Shaqsy,True,portfolio,4.4,14,0,,,,0,ChIJQd21s3Vdiz4R3IHIs6AtexM,,,Balance
34910603_CNH401,SHAMS JALAN-HAMED RASHID BUTE - BU ALI,"JALAN, BANI, BUALI,ALKAMIL,PC:100,POB:416",Buali,TT,,Al Kamil,22.03740938,59.32816943,Self Service,2790.384,24.41666667,Jinu,True,portfolio,4.0,226,0,,,,0,ChIJ3Rv0zHBDmj4RzL6s0rSUTUU,,,Balance
34910603_CN97668,NOOR EXPRESS - RUSATAQ,"Sultanate of Oman , Muscat, Bousher, Ghala Al Sanaiah, 130, 1811,0,00000",Rusataq,TT,,Barka,23.5251555,57.4653631,Grocery,2708.275,8.727272727,Shaqsy,True,portfolio,1.0,1,0,,,,0,ChIJlSH6ZwAvjD4RcdRCTH7B-50,,,Balance
34910603_CNS1541,SUR GIFT MARKET - SUR,"SUR,SUR,SULTANATE OF OMAN,PC:512, POB:427",Sur,MT,,Al Kamil,22.5782368,59.51298844,Discounters,2692.68,18.8,Jinu,True,portfolio,3.9,724,0,,,,0,ChIJ0z37BCqikD4R9IWsmwKKpEc,,,Balance
34910603_CN97161,AL JAZEERA INTERNATIONAL LLC - BU ALI,"NORTH BATINAH, SOHAR,PC:311,POB:399,SULTANATE OF OMAN",Bu Ali,TT,,Al Kamil,22.02031991,59.35540324,Grocery,2644.34,24.8,Jinu,True,portfolio,3.6,26,0,,,,0,ChIJ1diiCgBFmj4Rjxbikdzs5Ek,,,Balance
34910603_CNR1155,RUBUA AFI TRG-NAKHEEL,0,Afi,TT,,Barka,23.47261298,57.8320083,Grocery,2619.421,3.6,Shaqsy,True,portfolio,0.0,0,0,,,,0,,,,Balance
34910603_CNK352,KHAYRAT SHIBH JAZEERA - NIZWA,"AL DAKHILIA,NIZWA,SULTANATE OF OMAN,PC:611, POB:1344",Nizwa-Souq,TT,,Nizwa,22.93127648,57.53327678,Grocery,2618.133,0.0,Jinu,True,portfolio,4.0,21,0,,,,0,ChIJZWIQe83xjj4RW1Ft_a8JqFs,,,Balance
34910603_CN96315,NADA HAPPINESS - SUR,"AL SEEB, SOUTH AL AMABILAH, PC:121, POB:1304",Sur,TT,,Al Kamil,22.57874041,59.51546338,Grocery,2593.294,15.5,Jinu,True,portfolio,0.0,0,0,,,,0,,,,Balance
34910603_CN96797,AHLAIN INTERNATIONAL - RUMAIS NEW,"MUTTRAH,MINA ALFAHAL PC:116, POB:92",Rumais,TT,,Barka,23.659807,58.0269221,Grocery,2513.101,6.857142857,Shaqsy,True,portfolio,0.0,0,0,,,,0,,,,Balance
34910603_CNJ0001,JASSAR FOOD STUFF - SUR,0,Sur,TT,,Al Kamil,22.56639883,59.50761941,Grocery,2490.411,1.75,Jinu,True,portfolio,0.0,0,0,,,,0,,,,Balance
34910603_CNA1412,AFNAN RUSTAQ - RUSTAQ,"SOUTH BATINAH,AL RUSTAQ,AR RUSTAQ,SULTANATE OF OMAN,PC:318, POB:215",Rustaq,TT,,Barka,23.43503257,57.42123789,Grocery,2417.839,0.0,Shaqsy,True,portfolio,0.0,0,0,,,,0,ChIJMY6uAwAnjD4RkghLE6CBCHM,,,Balance
34910603_CN96511,ARFAN INTERNATIONAL WHOLESALE SPC - JAALAN BANI BU ALI,0,Jalan Bu Ali,WS+IS,,Al Kamil,22.018543,59.338142,Wholesale,2395.964,4.0,Jinu,True,portfolio,4.3,35,0,,,,0,ChIJ9SckY3xEmj4REjhAvGP4FUU,,,Balance
34910603_CN96075,ATAYA SHOPPING CENTER-LIWA,"SULTANTE OF OMAN, P.O BOX-3, P. CODE-312, SAHAM, AL BATINAH NORTH",Liwa,MT,,Sohar,24.51845753,56.56363301,Discounters,2372.668,7.0,Shaqsy,True,portfolio,4.0,598,0,,,,0,ChIJ7-JOuKdKiz4R2P5z1dBQELc,,,Balance
34910603_CNG10543,GRAND HYPERMARKET - SOHAR,"MUSCAT,MUTTRAH,RUWI,PC:112, POB:4074, AL NOOR STREET, IKRAM HOUSE",Sohar,TT,,Sohar,24.36016,56.74563,Self Service,2350.858,0.0,Shaqsy,True,portfolio,3.7,484,0,,,,0,ChIJa7aYDSxbiz4RDLM1uuG_szA,,,Balance
34910603_CNA1150A,AFNAN MAJAN SHOPPING -SUR,"SOUTH AL SHARQIYA, SUR, PC:411,POB:1107, SULTANATE OF OMAN",Sur,TT,,Al Kamil,22.519399,59.792216,Self Service,2299.616,0.0,Jinu,True,portfolio,0.0,0,0,,,,0,,,,Balance
34910603_CN99342,IBN AL HAITHAM MEDICAL CENTER - IBRA,"SULTANATE OF OMAN,AL SHARQIYAH NORTH,IBRA,626,400,IBRA PROVINCE",Ibra,WS+IS,,Al Kamil,22.717222,58.527974,Institutions,2276.833,0.0,Jinu,True,portfolio,3.0,57,0,,,,0,ChIJ69TlpZkkkD4R6Oa6cV-QwK4,,,Balance
34910603_CN94728,FANUN SOHAR INTERNATIONAL TRAD - SOHAR GATE,"POB:581,PC:311,AL BATINA,SOHAR,SULTANATE OF OMAN",Kashba,TT,,Sohar,24.39273,56.69399,Grocery,2252.369,0.0,Shaqsy,True,portfolio,0.0,0,0,,,,0,,,,Balance
34910603_CNM1058,MA'ALEM AL-KHADRA TRADING - BAHLA,"BAHLA,AL DAKHLLIYAH,BAHLA,PC:612, POB:262",Bahla,TT,,Nizwa,22.94948009,57.28633043,Grocery,2247.678,15.45454545,Jinu,True,portfolio,3.9,736,0,,,,0,ChIJV5skleTBjj4R8zFIyWz9AmY,,,Balance
34910603_CNN401A,ORIENTAL SHOPPING - BU ALI (NEAR R/O),"JAALAN BANI BU ALI, SOUTH AL SHARQIYA, PC:416, POB:113",Buali,TT,,Al Kamil,22.026067,59.34107466,Self Service,2241.88,45.41666667,Jinu,True,portfolio,4.2,157,0,,,,0,ChIJXe8NLMZFmj4RMAqbfgWOFNo,,,Balance
34910603_CNQ1049,QAFIL SHOPPING CENTRE - RUSTAQ,"IBIR,PC:511, POB:706",Ibri-Al Araqi,MT,,Nizwa,23.27380811,56.54326639,Discounters,2240.566,44.0,Jinu,True,portfolio,3.8,303,0,,,,0,ChIJx2KxWOTdiz4RKfDVUfcTDiw,,,Balance
34910603_CN96466,AL SHUAIBI SHOPPING CENTER - BIDIYA,"MUSCAT,MUTTRAH,RUWI,SULTATNATE OF OMAN,PC:320,POB:30",Bidiya,TT,,Al Kamil,22.43123569,58.80569871,Grocery,2229.003,10.5,Jinu,True,portfolio,0.0,0,0,,,,0,,,,Balance
34910603_CN97480,SHAIDHA LA REINA MARKET-ARAQI,"DHAHIRAH,IBRI,IBRI,70,416, SULTANTE OF OMAN",Araqi,MT,,Nizwa,23.28349,56.549975,Discounters,2168.74,18.2,Jinu,True,portfolio,3.8,69,0,,,,0,ChIJYdO-WL_diz4R-VkXlbauq68,,,Balance
34910603_CN98208,ALIYA SHOPPING CENTER - RUMAIS,"SULTANATE OF OMAN, MUSCAT, BOUSHER, GHALA, 400, 250, BOWSHER STREET, 00.",Rumais,TT,,Barka,23.6794504,57.9666263,Grocery,2157.777,3.8,Shaqsy,True,portfolio,4.8,9,0,,,,0,ChIJtVKOQADdjT4Rigf4tEiUjHI,,,Balance
34910603_CN90116,BAHLA AL KHEIR TRAD LLC - BAHLA,"AL DAKHALIYA, BAHLA,BAHLA,SULTANATE OF OMAN,PC:612,0",Bahla-Al Mamurah,TT,,Nizwa,22.99910133,57.31834595,Grocery,2149.514,38.33333333,Jinu,True,portfolio,0.0,0,0,,,,0,,,,Balance
34910603_CN93205,HIMM AL-NOOR ENT - BAHLA,"AL DAKHILIYA, NIZWA, PC:611, POB:1230",Bahla-Ghaffat,TT,,Nizwa,22.98277374,57.14945221,Grocery,2107.727,37.0,Jinu,True,portfolio,0.0,0,0,,,,0,,,,Balance
34910603_CN50238,AL ALAWI COLD STORE - BAHLA,0,Bahla Souq,TT,,Nizwa,22.96549613,57.29831399,Grocery,2102.124,0.0,Jinu,True,portfolio,4.5,11,0,,,,0,ChIJa3a8Nm6Vjj4RtTAz-WOTuGk,,,Balance
34910603_CNM1589,MIDDLE EAST COLD STORES - BISIYA,"AL DAKHILIYA,BAHLA,SULTANATE OF OMAN,131, 116",Bahla Bisiya,TT,,Nizwa,22.7263461,57.24078518,Grocery,2095.609,0.0,Jinu,True,portfolio,0.0,0,0,,,,0,,,,Balance
34910603_CNH7170,AL TAMAM INTERNATIONAL - 3. - RUSTAQ,"SULTANATE OF OMAN, MUSCAT,PC:114, POB:637, FANJA, 0, 0",Rustaq,TT,,Barka,23.39421787,57.42313102,Self Service,2075.403,35.18181818,Shaqsy,True,portfolio,3.9,270,0,,,,0,ChIJS_QVBfUnjD4RLsmILXfee50,,,Balance
34910603_CNA956,ZAHRAT AL - ZAAFRAN HYPERMARKET - FALAJ DARIS,"SULTANTE OF OMAN, P.O BOX-0, P. CODE-0, NIZWA, AD DAKHILIYAH,",Nizwa,TT,,Nizwa,22.96684881,57.54412451,Grocery,2046.808,26.66666667,Jinu,True,portfolio,5.0,3,0,,,,0,ChIJz--DVwDxjj4Rx6wn1kKuiLg,,,Balance
34910603_CN96484,SUQUR AL FALIJ -BU HAS SAN,"SULTANATE OF OMAN, SOUTH AL-SHARQIYA, JALAN BANI BU ALI, 416, BALAD BANI BU ALI, 127.",Bu Hasan,TT,,Al Kamil,22.0987793,59.2881474,Grocery,2039.65,8.5,Jinu,True,portfolio,0.0,0,0,,,,0,,,,Balance
34910603_CN91501,MAJID AL FUTTAIM HYPERMARKET - SUR,"MUSCAT, AL SEEB, PC:111,POB:2136,SULTANATE OF OMAN",Sur,KEY ACCOUNT ,,Al Kamil,22.57644608,59.50881557,KEY ACCOUNT,2032.278,78.16666667,Jinu,True,portfolio,3.9,651,0,,,,0,ChIJTdFObCiikD4Rxoc2Kiqlr00,,,Balance
34910603_CN94950,ALI AL NASEERI TRADE-IBRI,"SULTANATE OF OMAN, MUSCAT, 11, 511, AL DHAHIRA, IBRI",Ibri,TT,,Nizwa,23.27360541,56.72780247,Grocery,2022.207,21.33333333,Jinu,True,portfolio,0.0,0,0,,,,0,,,,Balance
34910603_CN96020,AL JAHRA HYPERMARKET - SHINAS,"NORTH BATINAH,AL KHABURA,PC:326,POB:429",Shinas,TT,,Sohar,24.70676783,56.45753193,Self Service,1970.042,11.66666667,Shaqsy,True,portfolio,3.6,14,0,,,,0,ChIJRYISV_vF9D4RSvAjhlA7BL0,,,Balance
34910603_CNW1036,WADI AL FALEJ TRADING - BUHASSAN,0,Bu Hasan,TT,,Al Kamil,22.10360506,59.28375742,Grocery,1953.961,0.0,Jinu,True,portfolio,0.0,0,0,,,,0,,,,Balance
34910603_CN96874,MOHAMMED NAZMUL MODERN TRAD - BARKA,"SULTANTE OF OMAN, P.O BOX -0, P. CODE-0, BARKA, AL BATINAH SOUTH",Barka,VAN,,Barka,23.609105,57.860316,Grocery,1949.034,16.22222222,Nobey,True,portfolio,5.0,1,0,,,,0,ChIJG9RrqojbjT4RU7iLLe3i6Dk,,,Balance
34910603_CNW1020,WAHAT AL KASWA - NAKHAL - RUSTAQ,0,Rustaq,TT,,Barka,24.004431,55.699497,Self Service,1941.609,0.0,Shaqsy,True,portfolio,0.0,0,0,,,,0,,,,Balance
34910603_CN98068,AL MEERA SELECT SUR - SUR,"BOUSHER, NORTH ALUDHAYBAT,SULTANATE OF OMAN, PC:102, POB:",Sur,TT,,Al Kamil,22.602066,59.432725,Grocery,1929.412,5.4,Jinu,True,portfolio,0.0,0,0,,,,0,,,,Balance
34910603_CNS1371,SHAMS AL ATTA TRAD & CONT - BIDIYA,0,Bidiya,TT,,Al Kamil,22.43422,58.8027893,Grocery,1891.815,0.0,Jinu,True,portfolio,0.0,0,0,,,,0,ChIJpVWYYVhzkD4RuvliBNN8X84,,,Balance
34910603_CN6824,LATIF RAHMAN CO - SUR,"AL SHARQIYA,SUR,PC:411,POB:145",Sur,TT,,Al Kamil,22.56903859,59.52793592,Grocery,1886.693,2.555555556,Jinu,True,portfolio,5.0,1,0,,,,0,ChIJ1XiTzR6hkD4RwM58UtUN7LI,,,Balance
34910603_CN91288,AL FOUZ HYPERMARKET - BIDIYA,"MUSCAT,MUTTRAH,PC:114, POB:1724",Bidiya,TT,,Al Kamil,22.50185183,58.7485173,Self Service,1863.083,0.0,Jinu,True,portfolio,3.8,72,0,,,,0,ChIJR5fX9ldtkD4R1aNi_59zCcE,,,Balance
34910603_CN98219,AL MARFA JOINT TRADING COMPANY - IBRI,"SULTANATE OF OMAN, AL-DHAHIRAH, IBRI, IBRI, 511, 511, 000000, 0.",Ibri,WS+IS,,Nizwa,23.220028,56.492611,Wholesale,1813.092,6.5,Jinu,True,portfolio,5.0,2,0,,,,0,ChIJVVskTMrfiz4RH5kLTultFaw,,,Balance
34910603_CN98078,AL MEERA SELECT  AQAR  - AL AQAR,"BOUSHER, NORTH ALUDHAYBAT,SULTANATE OF OMAN, PC:102, POB:",Sohar,TT,,Sohar,24.781543,56.337866,Grocery,1792.842,4.0,Shaqsy,True,portfolio,0.0,0,0,,,,0,,,,Balance
34910603_CN96786,AHLAIN INTERNATIONAL - NIZWA TYMSA,"MUTTRAH,MINA ALFAHAL PC:116, POB:92",Nizwa,TT,,Nizwa,22.86147048,57.46392253,Grocery,1762.157,4.125,Jinu,True,portfolio,0.0,0,0,,,,0,,,,Balance
34910603_CN92729,ADVANCE GATE INVESTMENT LLC-AL HAMRA,"AL SEEB,SOUTH AL HAYL, PC:114, POB:1866",Bahla-Ghaffat,TT,,Nizwa,22.85868972,57.5224205,Grocery,1749.316,0.0,Jinu,True,portfolio,0.0,0,0,,,,0,,,,Balance
34910603_CN92079,ENHANCE OMAN OIL-AL SUWAIQ,"BOUSHER, GHALA AL SANAIAH,PC:130, POB:1181",Khabbah,TT,,Barka,23.81049386,57.46220761,Grocery,1725.04,0.0,Shaqsy,True,portfolio,0.0,0,0,,,,0,,,,Balance
34910603_CNK706,THOUBA SHOPPING (KHALIL MURAD - IBRA,"MUTTRAH,RUWI, PC:112, POB:2460",Ibra,TT,,Al Kamil,22.833046,58.42721,Grocery,1690.265,0.0,Jinu,True,portfolio,0.0,0,0,,,,0,,,,Balance
34910603_CN98065,AL MEERA SELECT  SAHAM  - SAHAM,"BOUSHER, NORTH ALUDHAYBAT,SULTANATE OF OMAN, PC:102, POB:",Saham,TT,,Sohar,24.004554,56.796221,Grocery,1668.622,8.0,Shaqsy,True,portfolio,0.0,0,0,,,,0,,,,Balance
34910603_CNR1062,RAWABI AL SALAM SHOPPING CENT - SOHAR,"NORTH BATINAH, SOHAR, PC:311, POB:222",Sohar,TT,,Sohar,24.34595209,56.73644111,Grocery,1649.48,0.0,Shaqsy,True,portfolio,3.8,437,0,,,,0,ChIJF0RUzstEiz4RLwTkgJYUn9Q,,,Balance
34910603_CNZ1046,AL ZAIZAH SHOPPING - WAFI,"AL SHARQIYA, JlN BANI BUHASSAN,SULTANATE OF OMAN,PC:412, POB:257",Al Wafi,MT,,Al Kamil,22.18346195,59.22191503,Discounters,1646.823,10.71428571,Jinu,True,portfolio,3.8,98,0,,,,0,ChIJ8_M4ICNkmj4R3X2dswgw4PM,,,Balance
34910603_CN95295,RAZ INTERNATIONAL LLC-IBRA,"SULTANAT OF OMAN, IBRA, ASH SHARQIYAH NORTH, POST BOX -21, POSTAL CODE -421",Ibra,TT,,Al Kamil,23.041352,58.600451,Grocery,1628.596,0.0,Jinu,True,portfolio,0.0,0,0,,,,0,,,,Balance
34910603_CN95207,SALIM MFTAH ALY'QWBY ALRAYDT LLC-IBRI,"AL DHAHIRAH,IBRI,PC:511,POB:60",Ibri,TT,,Nizwa,23.23492897,56.49861638,Grocery,1627.448,12.0,Jinu,True,portfolio,0.0,0,0,,,,0,,,,Balance
34910603_CN93091,FAKHAMAT AL AIKHTIAR-BARKA,0,Barka,TT,,Barka,23.68686567,57.9651604,Grocery,1615.133,0.0,Shaqsy,True,portfolio,0.0,0,0,,,,0,,,,Balance
34910603_CN95510,AL KUDAMY LLC - AL HAMRA,"AL HAMRA,DHAKALIYA,11,617,SULTANATE OF OMAN",Nizwa,TT,,Nizwa,23.10186018,57.2770127,Grocery,1612.845,40.0,Jinu,True,portfolio,4.1,67,0,,,,0,ChIJp_1aOgG-jj4RIRc902Mf1rM,,,Balance
34910603_CNR1207,AL RAKAHEEN FOOD STUFF - AL HAMRA,0,Al Hamra-Souq,TT,,Nizwa,23.11885998,57.2919733,Grocery,1589.833,9.333333333,Jinu,True,portfolio,0.0,0,0,,,,0,,,,Balance
34910603_CN94375,BADER AL ZAMAN INTERNATIONAL -SOHAR,"SOHAR,NORTH BATINAH,SOHAR,POB:18,PC:321,SULTANATE OF OMAN",Tarif,TT,,Sohar,24.5230691,56.5595151,Grocery,1589.6,0.0,Shaqsy,True,portfolio,0.0,0,0,,,,0,,,,Balance
34910603_CN92614,JALAN CITY INTL SHOPPING - JAALAN BANI BU ALI,"SOUTH AL SHARQIYA,JALAN BANI BU ALI,SULTANATE OF OMAN,POB:56, PC:416",Jalan Bu Ali,TT,,Al Kamil,22.03550455,59.3328079,Grocery,1574.618,7.666666667,Jinu,True,portfolio,3.8,64,0,,,,0,ChIJlz9lb3hDmj4RKeLLKQFSr6E,,,Balance
34910603_CNF1019,YAAS MRN SHOPPING LLC - BAHLA,"MUSCAT,SEEB,POB:1200,PC:132,SULTANATE OF OMAN",Bahla,MT,,Nizwa,22.95026455,57.28673816,Discounters,1569.356,0.0,Jinu,True,portfolio,0.0,0,0,,,,0,,,,Balance
34910603_CN95452,AL SALAMA DISCOUNT CENTER - AL HAMRA,"MUSCAT,BOUSHER,179,70,420,AL KHUWAIR,SULTANATE OF OMAN",Bahla,VAN,,Nizwa,23.10634667,57.27303166,Grocery,1527.101,0.0,Nobey,True,portfolio,0.0,0,0,,,,0,,,,Balance
34910603_CNA1530,AL AMRA COLD STORES - BARKA,"AL BATINA SOUT,BARKA,POB:332,PC:320,SULTANATE OF OMAN",Hay Aasam,TT,,Barka,23.6894516,57.96362451,Self Service,1525.091,16.25,Shaqsy,True,portfolio,0.0,0,0,,,,0,,,,Balance
34910603_CNS327,AL BATRANI COMPREHENSIVE ENTERPRICES - NIZWA,0,Nizwa-Souq,TT,,Nizwa,22.93250497,57.53146173,Grocery,1505.411,0.0,Jinu,True,portfolio,0.0,0,0,,,,0,ChIJUw2dOADxjj4RDf9wTgCYJWA,,,Balance
34910603_CN95616,AL HARAMAIN INTERNATIONAL BUSINESS LLC - JAALAN BANI BU ALI,"SULTANANE OF OMAN,P.O BOX -0, P. CODE-0, BU-ALI, ASH SHARQIYAH SOUTH",Jalan Bu Ali,TT,,Al Kamil,22.0374773,59.3277288,Grocery,1485.027,11.0,Jinu,True,portfolio,0.0,0,0,,,,0,,,,Balance
34910603_CNT2010A,MAKKAH HYPERMARKET - SUR,"NORTH BATINAH,AL SUWAIQ,ATH THARMAD PC:314,POB:331",Sur,TT,,Al Kamil,22.57907081,59.50306253,Self Service,1484.665,38.16666667,Jinu,True,portfolio,3.8,538,0,,,,0,ChIJCdLc8SaikD4R6qusjyEs2wU,,,Balance
34910603_CN90543,BINTOUT INTERNATIONAL TRADING CO - ADAM,"DHOFAR, SALALAH, PC:211, POB:365,SULTANATE OF OMAN",Salalah,TT,,Salalah,17.00750639,54.00675234,Grocery,1483.641,38.0,Nobey,True,portfolio,0.0,0,0,,,,0,,,,Balance
34910603_CN99467,TBROZA HYPERMARKET - BAHLA,"Sultanate of Oman , Muscat, Asseeb, Al Khoudh, 1132, 121",Bahla,TT,,Nizwa,22.7266,57.2416,Self Service,1468.496,110.5,Jinu,True,portfolio,5.0,2,0,,,,0,ChIJM3VJX87fjj4R7bJ2pwx4gNA,,,Balance
34910603_CNI0011,IBN AL ARAIMI SHOPPING - SUR,0,Sur,TT,,Al Kamil,22.5680861,59.5252469,Grocery,1455.102,0.0,Jinu,True,portfolio,0.0,0,0,,,,0,,,,Balance
34910603_CNJ257,AL JAZEERA INTERNATIONAL LLC - SAHAM,"NORTH BATINAH, SOHAR,PC:311,POB:399,SULTANATE OF OMAN",Saham,TT,,Sohar,24.1517235,56.88078776,Grocery,1436.514,3.6,Shaqsy,True,portfolio,4.1,202,0,,,,0,ChIJf1BuEVRiiz4RdZLHrgiKddE,,,Balance
34910603_CN97779,ANHAR AL FAYHA TRADING LLC  - RUMAIS AREEJ COMMUNITY,"MUTTRAH,PC;111, POB:3347",Rumais,TT,,Barka,23.66654,58.028902,Grocery,1435.377,19.66666667,Shaqsy,True,portfolio,0.0,0,0,,,,0,,,,Balance
34910603_CNZ212,AL JAZEERA INTERNATIONAL LLC - SOHAR NEAR CARREFOUR,"NORTH BATINAH, SOHAR,PC:311,POB:399,SULTANATE OF OMAN",Sohar,TT,,Sohar,24.36035895,56.72132054,Grocery,1429.643,17.3,Shaqsy,True,portfolio,4.0,435,0,,,,0,ChIJ1Z1ofiBFiz4RGbfSi-Uq4I4,,,Balance
34910603_CN91460,ABU RETAJ AL MASROORI TRADING - SUR,"MUSCAT,MUTTRAH,QURUM,1309,670,50,415,SULTANATE OF OMAN",Ibra,TT,,Al Kamil,22.598065,59.438887,Grocery,1411.557,0.0,Jinu,True,portfolio,0.0,0,0,,,,0,,,,Balance
34910603_CN96344,SIRAJ AL JAZEERA PROJECTS TRADING(WADI QURAYAT MALL)-BAHLA,0,Yanqul,TT,,Nizwa,22.83673156,57.21183605,Grocery,1403.834,17.66666667,Jinu,True,portfolio,0.0,0,0,,,,0,,,,Balance
34910603_CNW1029,WADI AL ALAIN SHOP-IBRI,0,Nizwa,TT,,Nizwa,23.12994373,56.88988251,Grocery,1403.353,136.0,Jinu,True,portfolio,0.0,0,0,,,,0,,,,Balance
