store_id,store_name,address,city,account,district,region,lat,lng,category,annual_sales_usd,lines_per_store,fsm,covered,source,rating,review_count,price_level,phone,opening_hours,website,poi_count,place_id,business_status,google_types
34910603_CNF1120,FAIDH UNITED TRADING - IZKI,"IZKI, AL DAKHILIYAH,PC:614,POB:184",Izki,TT,,Nizwa,22.94132259,57.75899436,Grocery,311773.118,63.58333333,Jinu,True,portfolio,4.1,8,0,,,,0,ChIJz3VFKwBRjj4RdzndoT_uzhs,,
34910603_CN95777,MALMART-NIZWA,"MUSCAT,MUSCAT,1068,121,SULTANATE OF OMAN",Nizwa,MT,,Nizwa,22.88288481,57.54117399,Discounters,177936.28,20.77777778,Jinu,True,portfolio,4.3,679,0,,,,0,ChIJkcVYPsj7jj4R2ltdktdC8xs,,
34910603_CN90003,SAMA AL KHALEEJ MARKET LLC - ADAM,"NORTH AL SHARQIYA,AL MUDHAIBI,SAMAD ASH SHAN, PC:423, POB:417",Adam,TT,,Nizwa,22.38856561,57.52392227,Grocery,"162,593.92",46.11111111,Jinu,True,portfolio,3.8,410,0,,,,0,ChIJI9AzyTtzjz4ReefVi3mk-Io,,
34910603_CN95447,STAR GIFT CENTRE NEW LLC - SAMAD,"MUSCAT,123,321,SULTANATE OF OMAN",Samad,MT,,Nizwa,22.58193754,58.12554301,Discounters,147789.282,25.1,Jinu,True,portfolio,4.2,128,0,,,,0,ChIJNfa6AATDjz4RHKHCHOYbyKs,,
34910603_CNI1037,ISMAILY SHOPPING CENTRE - NIZWA,0,Nizwa,TT,,Nizwa,22.93501489,57.53369637,Grocery,127786.072,0.0,Jinu,True,portfolio,4.4,182,0,,,,0,ChIJ61ChNrfxjj4RPH2FZKlIRpU,,
34910603_CN91761,ROOH ALAKHWA - BARKAT MOUZ,"AL DAKHILIYA - NIZWA, BARKAT AL MOUZ,PC:45, POB:616",Nizwa,TT,,Nizwa,22.9172674,57.6723753,Self Service,118801.356,0.0,Jinu,True,portfolio,0.0,0,0,,,,0,ChIJXzVrKL1Xjj4RMGFRv474ngU,,
34910603_CNA1629,ANHAR AL FAYHA HYPER MARKET - SINAW,"MUTTRAH,PC;111, POB:3347",Sinaw,TT,,Nizwa,22.48961044,58.02691712,Grocery,116378.705,31.18181818,Jinu,True,portfolio,3.9,73,0,,,,0,ChIJq6L3ycfrjz4RrKqaugh-Osk,,
34910603_CNA388,AL ABDHALI COLD STORES - MANAH,"AL DAKHILIYA, MANAH,SULTANATE OF OMAN,PC:619, POB:121",Mana,TT,,Nizwa,22.78923816,57.60000744,Grocery,112783.405,52.0,Jinu,True,portfolio,4.3,186,0,,,,0,ChIJlWBtZ63_jj4ReFQPi0bY5KY,,
34910603_CN92910,AL RAHA HYPER - NIZWA-BARKAT AL MAUZ,"AL DAKHILIYAH,IZKI,IZKI,QALAT AL AWAMER,POB:614, PC:614, SULTANATE FO OMAN",Barkat Mouz,TT,,Nizwa,22.91852753,57.6640654,Self Service,"112,046.05",0.0,Jinu,True,portfolio,4.4,1791,0,,,,0,ChIJNVC82JRXjj4R34xfOV5EcRU,,
34910603_CNW1050,WORLD GIFT MARKETING - IZKI,"AL DAKHILIYAH, IZIKI,PC:614, POB:275",Izki,MT,,Nizwa,22.91544059,57.7415765,Discounters,100749.147,27.44444444,Jinu,True,portfolio,3.9,342,0,,,,0,ChIJN8ST6ClRjj4RUAVJGed8L1w,,
34910603_CN90382,ANHAR AL FAYHA TRADING  - MUDHAIBI,"MUTTRAH,PC;111, POB:3347",Mudhaibi,TT,,Nizwa,22.58144725,58.12511071,Grocery,99693.438,16.0,Jinu,True,portfolio,3.7,41,0,,,,0,ChIJZ0VneLnDjz4RHilEtEED3PQ,,
34910603_CNN022,NAGINKUMAR CHHOTALAL TANNA & - NIZWA,"FARQ, AL-DAKHILIYAH, NIZWA PC:611, POB:436",Nizwa,WS+IS,,Nizwa,22.89240555,57.53064926,Wholesale,99546.611,1.0,Jinu,True,portfolio,3.8,17,0,,,,0,ChIJZedV0xT6jj4Rf75-Yc3Yr-w,,
34910603_CN95033,HOOR AL AIN HYPERMARKET - SINAW,"AL IRAQI,AL RUSTAQ,POB:46,PC:318, SULTANATE OF OMAN",Sinaw,TT,,Nizwa,22.48879916,58.02754342,Self Service,95859.791,27.45454545,Jinu,True,portfolio,4.1,26,0,,,,0,ChIJdwe01CXrjz4RXt9CGuNTOO4,,
34910603_CN96696,AL IDKHAR GIFT MARKET - ADAM,"ADAM, AL DAKHILIYAH, PC:618, POB:24",Adam,MT,,Nizwa,22.38749871,57.5253893,Discounters,94234.495,6.090909091,Jinu,True,portfolio,4.0,4,0,,,,0,ChIJoVWcMTlzjz4RetfKJlAnFJI,,
34910603_CNA386,AMER ALI SONS - SINAW,"AL MUDHAIBI,SINAW,PC:418,POB:27,SULTANATE OF OMAN",Sinaw,WS+IS,,Nizwa,22.48629907,58.02731016,Wholesale,89615.721,6.2,Jinu,True,portfolio,0.0,0,0,,,,0,,,
34910603_CNB1353,DUBAI SHOPPING CENTER INTL - MUDHAIBI,"AL SEEB, NORTH AL MOOLAH, PC:132, POB:1019",Nizwa,KEY ACCOUNT ,,Nizwa,22.57705951,58.12116001,Rest Of Key Accounts,81457.703,0.0,Jinu,True,portfolio,3.9,188,0,,,,0,ChIJ6yjyoB3Djz4R3vOEYfcfoJo,,
34910603_CN94936,AL TAMAM INTERNATIONAL - MUDHAIBI,"SULTANATE OF OMAN, MUSCAT,PC:114, POB:637, FANJA, 0, 0",Mudhaibi,TT,,Nizwa,22.569628,58.118164,Grocery,78887.013,38.66666667,Jinu,True,portfolio,3.8,126,0,,,,0,ChIJObtGaL_Djz4RsusXX2rp4h4,,
34910603_CN94473,SUPERMARKET 24 - NIZWA,"PC:612,MUSCAT,AL SEEB,AL KHAWD",Nizwa,TT,,Nizwa,22.88782997,57.55196732,Grocery,76665.397,26.8,Jinu,True,portfolio,4.5,94,0,,,,0,ChIJldDXkZP7jj4RH6xjn66GSuw,,
34910603_CN96499,AL SHIKH SHOPPING CENTER-SAMAD SHAN,"AR RUMAYS,SOUTH BATINAH, BARKA,PC:328,POB:78",Samad,MT,,Nizwa,22.8269777,58.16929316,Discounters,75924.435,45.0,Jinu,True,portfolio,4.0,640,0,,,,0,ChIJG5Y5eZbNjz4RUSUuCLd87Sc,,
34910603_CN94483,TAJ DELUXE SHOPPING - BEACH - KHADRA,"NORTH BATINAH, AL SUWAIQ,PC:315,POB:279",Khadra,TT,,Barka,23.87684309,57.34098927,Grocery,74370.061,21.16666667,Shaqsy,True,portfolio,0.0,0,0,,,,0,,,
34910603_CN95650,AL MANARA UNITED CO LLC-IZKI,"SULTANANE OF OMAN, P.O BOX -46, P. CODE -0, IZKI, AD DAKHILIYAH",Izky,MT,,Nizwa,22.93861679,57.75570417,Discounters,66877.331,15.57142857,Jinu,True,portfolio,4.1,19,0,,,,0,ChIJ_____-9Qjj4RzS1EJJvDyhc,,
34910603_CN93270,AL BADIYA HYPERMARKET - MULADHA,"NORTH BATINAH, AL SUWAIQ, PC:316, PC:194",Muladha,TT,,Barka,23.75619826,57.56035226,Grocery,66213.689,46.83333333,Shaqsy,True,portfolio,4.1,58,0,,,,0,ChIJ6R3tAXU1jD4RHfULPlYSxpA,,
34910603_CN90112,GREEN SPRING HYPERMARKET - Izki,"AL DAKHILIYAH,IZKI,IZKI,SULTANATE OF OMAN,PC:614, POB:347",Nizwa,KEY ACCOUNT ,,Nizwa,22.93077468,57.7776361,Rest Of Key Accounts,64033.974,16.8,Jinu,True,portfolio,3.9,113,0,,,,0,ChIJwddE3PhQjj4RTqCg6xt6tRI,,
34910603_CNT1196,AL TAYEBAT NATIONAL (WHOLESAL - MUSANNAH,"PC:10, POB:312",Maghsar,TT,,Barka,24.4470429,56.602309,Self Service,62711.39,0.0,Shaqsy,True,portfolio,0.0,0,0,,,,0,ChIJ0WvcsZhJiz4RQ0Pmyz1_EC4,,
34910603_CN91988,AL AIN MART- NIZWA - HAY ALAIEN,"AL DAKHILIYA,NIZWA,POB:142,PC:611, SULTANATE OF OMAN",Nizwa,TT,,Nizwa,22.92660991,57.5222106,Grocery,60575.032,19.33333333,Jinu,True,portfolio,4.3,116,0,,,,0,ChIJBZvauvvxjj4R-RY9GuIWoNA,,
34910603_CNM0084,MS MAX (MUSCAT GIFT MARKET) - BURAIMI,"AL-BURAIMI,104,512,SULTANATE OF OMAN",Sohar,MT,,Sohar,24.25598094,55.76908748,Discounters,60119.887,9.0,Shaqsy,True,portfolio,4.2,1424,0,,,,0,ChIJj_qoQDy1ij4RIveUU3B4_I8,,
34910603_CN93437,AMJD AL SABAHI TRADING - NIZWA,0,Nizwa,TT,,Nizwa,22.85920838,57.5199663,Grocery,55415.9,0.0,Jinu,True,portfolio,0.0,0,0,,,,0,,,
34910603_CNQ1051,AL QABAEL GIFT MARKET LLC-NIZWA,"MUTTRAH,RUWI, PC:611, POB:1551",Nizwa,MT,,Nizwa,22.90746685,57.5299063,Discounters,54413.78,36.0,Jinu,True,portfolio,3.9,1286,0,,,,0,ChIJR-gd2XT6jj4R1hj56ddbIac,,
34910603_CN91191,ADAM EXCELLENCE MARKET - ADAM,"NORTH AL SHARQIYA,AL MUDHAIBI,SAMAD ASH SHAN,PC:423, POB:417",Adam,TT,,Nizwa,22.38277897,57.53258029,Grocery,53079.239,15.9,Jinu,True,portfolio,3.8,227,0,,,,0,ChIJ941OnGpzjz4RlX81AgQjhJY,,
34910603_CN93050,KHIMJI MART LLC(NIZWA SS SHELL)-NIZWA,"MUSCAT,PC:100, POB:19",Nizwa,KEY ACCOUNT ,,Nizwa,22.904148,57.532603,Rest Of Key Accounts,53019.787,0.0,Jinu,True,portfolio,4.0,232,0,,,,0,ChIJp25e7Az6jj4RKCtxrCZ79nc,,
34910603_CNZ503,ZAHRAT AL FAWA - MULADHA,"NORTH BATINAH,AL SUWAIQ, AS WUWAYQ,PC:315,POB:109",Muladha,TT,,Barka,23.73524467,57.68261299,Grocery,52725.042,7.1,Shaqsy,True,portfolio,0.0,0,0,,,,0,,,
34910603_CNA1406,ASWAQ ANWAR AL KHALEEJ - BURAIMI,"SULTANATE OF OMAN,BURAIMI,BURAIMI,PC:512, POB:971",Buraimi,TT,,Sohar,24.25504629,55.78167527,Self Service,51601.422,26.3,Shaqsy,True,portfolio,4.0,759,0,,,,0,ChIJ1TVviiG0ij4R0JHz1XK_-Qc,,
34910603_CN92015,DREAMS DISCOUNT CENTER LLC-NIZWA,"MUSCAT,MUSCAT,886,511,SULTANATE OF OMAN",Nizwa,MT,,Nizwa,22.88872638,57.5535455,Discounters,51272.03,9.4,Jinu,True,portfolio,4.1,634,0,,,,0,ChIJpU3Kw1f5jj4R5JDoDZ8rZ_s,,
34910603_CNA507,AL TAYEBAT NATIONAL LLC - MUSANNAH,"PC:10, POB:312",Musannah,TT,,Barka,23.74339813,57.62907343,Self Service,51226.813,0.0,Shaqsy,True,portfolio,0.0,0,0,,,,0,,,
34910603_CND508,DANAT AL FAO LLC - KHABA,"NORTH BATINAH,AL-SUWAIQ, AS SUWAYQ,PC:315, POB:511",Khabbah,TT,,Barka,23.80485838,57.47607039,Grocery,50905.949,14.25,Shaqsy,True,portfolio,0.0,0,0,,,,0,,,
34910603_CN99240,MASTER MART HYPERMARKET - SINAW,"SULTANATE OF OMAN, MUSCAT, BOUSHER, GHALA, 111, 112, 00, 0.",Nizwa,TT,,Nizwa,22.503408,58.034538,Grocery,50190.26,41.0,Jinu,True,portfolio,3.9,139,0,,,,0,ChIJt5aLOZfqjz4RA5-gA5fqmSk,,
34910603_CNK1133,AL KHADRA SHOPPING CENTER - KADRA,"SULTANATE OF OMAN, NORTH AL SHARQIYA, AL-MUDHAIBI, KHADRA BANI DAFFA, 418, 234.",Khadra,TT,,Nizwa,22.79489293,58.00358136,Grocery,50138.007,7.5,Jinu,True,portfolio,0.0,0,0,,,,0,,,
34910603_CN96142,QOOT HYPERMARKET - THARMAD,"SUMAIL,AL DAKHILIYAH,POB:82,PC:615,SULTANATE OF OMAN",Tharmad,TT,,Barka,23.800465,57.48432,Grocery,48057.048,0.0,Shaqsy,True,portfolio,0.0,0,0,,,,0,,,
34910603_CN94520,AL FOUZ HYPERMARKET -AL KHADRA,"MUSCAT,MUTTRAH,PC:114, POB:1724",Khadra,TT,,Nizwa,22.88018241,58.00602939,Grocery,47740.977,17.1,Jinu,True,portfolio,4.1,35,0,,,,0,ChIJDd0WOitLjj4RSa1U0YcS29U,,
34910603_CNR1025,AL RAHA SHOPPING CENTRE - IZKI,"AL DAKHILIYAH,IZKI,IZKI,QALAT AL AWAMER,POB:614, PC:614, SULTANATE FO OMAN",Qala,TT,,Nizwa,22.82622737,57.75471456,Self Service,46519.19,0.0,Jinu,True,portfolio,0.0,0,0,,,,0,,,
34910603_CN95732,SWIFT MARKETING - AL MAHA STATION - BURAIMI,"AL BURAIMI,AL BURAIMI,111,0,AL BURAIMI STREET, SULTANATE OF OMAN",Buraimi,TT,,Sohar,24.23570451,55.9150109,Grocery,45471.005,8.333333333,Shaqsy,True,portfolio,0.0,0,0,,,,0,,,
34910603_CN4124,TAJ ALFALAJ  LIWA MALL - LIWA JADEED,"NORTH BATINAH, SOHAR,PC:311, POB:303",Liwa,TT,,Sohar,24.52373265,56.55893171,Self Service,44883.943,78.5,Shaqsy,True,portfolio,4.1,669,0,,,,0,ChIJf60Gc5A1iz4R_ZYQ7S2rnOM,,
34910603_CN94733,TAFADAL HYPERMARKET - NIZWA,"Sultanate of Oman, Al Dakhila, Nizwa, 723, 611",Nizwa,TT,,Nizwa,22.85759423,57.52885599,Grocery,44147.931,19.66666667,Jinu,True,portfolio,4.1,76,0,,,,0,ChIJZXBGDxr7jj4Ra4cWD3U3qQc,,
34910603_CN93369,MAKKAH HYPERMARKET - QALA - IZIKI,"NORTH BATINAH,AL SUWAIQ,ATH THARMAD PC:314,POB:331",Izki,TT,,Nizwa,22.82877145,57.75455016,Self Service,43548.193,22.90909091,Jinu,True,portfolio,3.8,159,0,,,,0,ChIJ-fCgsgZTjj4Ru6jXeYABc90,,
34910603_CN96395,HYPERLAND -BURAIMI,"MUSCAT, AL SEEB, AS SEEB, 111,0,0,0, SULTANATE OF OMAN",Buraimi,TT,,Sohar,24.25555504,55.79726963,Self Service,43519.865,54.0,Shaqsy,True,portfolio,4.1,203,0,,,,0,ChIJt61Pejq1ij4RP1_6d6yPNQE,,
34910603_CNA1678,AL KAWTHER LINE INTERNATIONAL - ADAM,"AL DAKHILIYAH,ADAM,ADAM,OC:618,POB:101",Adam,TT,,Nizwa,22.37555122,57.5297829,Grocery,43499.554,26.0,Jinu,True,portfolio,0.0,0,0,,,,0,,,
34910603_CNM1493,AL MADEENA SHOPPING CENTER - IZKI,"AL DAKHILIYAH,IZKI,IZKI,SULTANATE OF OMAN,PC:614, POB:347",Nizwa,KEY ACCOUNT ,,Nizwa,22.9514386,57.7696178,Rest Of Key Accounts,42751.749,18.25,Jinu,True,portfolio,0.0,0,0,,,,0,,,
34910603_CN90529,BABIL HYPERMARKET - SINAW,"AL SEEB,AL KHAWD,PC:132, POB:624",Sinaw,TT,,Nizwa,22.50359167,58.03491732,Self Service,39212.161,0.0,Jinu,True,portfolio,3.9,139,0,,,,0,ChIJt5aLOZfqjz4RA5-gA5fqmSk,,
34910603_CN96077,ATAYA SHOPPING CENTER- IZKI,"SULTANTE OF OMAN, P.O BOX-3, P. CODE-312, SAHAM, AL BATINAH NORTH",Izki,MT,,Nizwa,22.94104399,57.75751338,Discounters,"39,211.33",10.5,Jinu,True,portfolio,4.0,470,0,,,,0,ChIJZfJ8-L9Qjj4RFJfo55iJuX4,,
34910603_CN99512,SINAW FRESH HYPERMARKET - SINAW,"NORTH ALSHARQIYA ,SINAW.",Sinaw,TT,,Nizwa,22.477354,58.027649,Grocery,38961.271,205.0,Jinu,True,portfolio,4.6,9,0,,,,0,ChIJ8xwfbETrjz4ReVais5A2bzk,,
34910603_CN99019,AL ANSARI SHOPPING - WUDAM,"AL BATINAH,MUSANNA,SULTANATE OF OMAN,PC:312, POB:418",Wudam,MT,,Barka,23.808908,57.554443,Discounters,38819.145,6.833333333,Shaqsy,True,portfolio,0.0,0,0,,,,0,ChIJ0y6RFABLjD4RB_m4cfwUwC0,,
34910603_CN90468,SAMA AL KHALEEJ MARKETS - AL QARITAN,"NORTH AL SHARQIYA,AL MUDHAIBI,SAMAD ASH SHAN, PC:423, POB:417",Khadra,TT,,Nizwa,22.88223815,58.00737651,Grocery,37988.524,0.0,Jinu,True,portfolio,0.0,0,0,,,,0,,,
34910603_CN7765,AL KASS SHOPPING CENTRE - ABU ABALI,"AL BATINA, BARKA, PC:320, POB:237, SULTANATE OF OMAN",Abu Abali,TT,,Barka,23.75216817,57.62554699,Grocery,37113.652,12.125,Shaqsy,True,portfolio,0.0,0,0,,,,0,,,
34910603_CNR359,RAHAB AL MANSOORIYA TRADING - NIZWA,"AL DAKHILIYA,NIZWA,NIZWA,POB:1307,PC:611,SULTANATE OF OMAN",Nizwa,TT,,Nizwa,22.9512436,57.52843697,Grocery,36799.355,0.0,Jinu,True,portfolio,0.0,0,0,,,,0,,,
34910603_CN99550,AL MUDHAIBI INTL COLD STORE - AL MUDHAIBI,"P.O.BOX:100, P.CODE:100, AL MUBALA 1, SULTANATE OF OMAN",Sumail,TT,,Nizwa,22.570326,58.122065,Grocery,36762.242,24.6,Jinu,True,portfolio,0.0,0,0,,,,0,,,
34910603_CN99264,AL FOUZ HYPERMARKET - IZKI,"MUSCAT,MUTTRAH,PC:114, POB:1724",Nizwa,TT,,Nizwa,22.944328,57.760078,Grocery,35304.273,40.66666667,Jinu,True,portfolio,5.0,2,0,,,,0,ChIJOfU0BgBRjj4RK_f5qSMGWww,,
34910603_CN91739,AL QABAEL GIFT MARKET LLC - IZKI,"MUTTRAH,RUWI, PC:611, POB:1551",Izki,MT,,Nizwa,22.92550097,57.75042537,Discounters,35123.134,33.63636364,Jinu,True,portfolio,4.0,380,0,,,,0,ChIJ5ftXD35Rjj4RQtFtsPMjJUk,,
34910603_CN95064,AL NAS HYPERMARKET - MANAH,"AL DHAKHILIYAH, BAHLA,HAHLA,PC:612,612",Manah,TT,,Nizwa,22.78624356,57.60336955,Grocery,34476.196,9.6,Jinu,True,portfolio,0.0,0,0,,,,0,,,
34910603_CN93326,MS MAX - KHABURAH,"AL BURAIMI,PC:512, POB:590",Khabura,MT,,Barka,23.9633863,57.09646039,Discounters,34314.091,20.3,Shaqsy,True,portfolio,4.3,2121,0,,,,0,ChIJXwzEkbl9jD4RB-iYLpAlLeY,,
34910603_CNG1054,GRAND HYPERMARKET - SAHAM,"MUSCAT,MUTTRAH,RUWI,PC:112, POB:4074, AL NOOR STREET, IKRAM HOUSE",Saham,TT,,Sohar,24.1542902,56.8851722,Self Service,34186.401,0.0,Shaqsy,True,portfolio,3.8,693,0,,,,0,ChIJMZbVxFBiiz4R3X9wC0ZEiHU,,
34910603_CN98077,AL MEERA SELECT SINAW   - SINAW,"BOUSHER, NORTH ALUDHAYBAT,SULTANATE OF OMAN, PC:102, POB:",Sinaw,TT,,Nizwa,22.487541,58.026202,Grocery,34031.549,4.0,Jinu,True,portfolio,0.0,0,0,,,,0,,,
34910603_CN98067,AL MEERA SELECT  SUWAIQ - SUWAIQ,"BOUSHER, NORTH ALUDHAYBAT,SULTANATE OF OMAN, PC:102, POB:",Suwaiq,TT,,Barka,23.713159,57.240445,Grocery,33908.752,21.16666667,Shaqsy,True,portfolio,0.0,0,0,,,,0,,,
34910603_CN98844,AL MANARA UNITED LLC - NIZWA,"SULTANANE OF OMAN, P.O BOX -46, P. CODE -0, IZKI, AD DAKHILIYAH",Nizwa,WS+IS,,Nizwa,22.891623,57.530579,Wholesale,33469.314,9.333333333,Jinu,True,portfolio,0.0,0,0,,,,0,,,
34910603_CNA1676,ABDULLAH KALEEFA SALIM TRD - KADRA,0,Khadra,TT,,Barka,23.86787472,57.31549417,Grocery,32854.239,3.25,Shaqsy,True,portfolio,0.0,0,0,,,,0,,,
34910603_CNJ1109,JANOOB MADENA SHOPPING CENTER - AL SUWAYQ,"NORTH BATINAH, AL SUWAIQ, PC:315,POB:93",Suwaiq,TT,,Barka,23.8272589,57.4110067,Self Service,32567.208,35.0,Shaqsy,True,portfolio,0.0,0,0,,,,0,,,
34910603_CN94444,TAJ HYPERMARKET - SAYMA - IZKI,"NORTH BATINAH, AL SUWAIQ,PC:315,POB:279",Nizwa,TT,,Nizwa,22.97244581,57.90552308,Self Service,32498.097,23.83333333,Jinu,True,portfolio,4.0,45,0,,,,0,ChIJcaaZoslPjj4RlGGifNHwM4E,,
34910603_CN95598,MAJEESCO SHOPPING - SOHAR SOUQ,"SULTANANE OF OMAN, P.O BOX -33311, P. CODE-311, SOHAR,AL BATINAH NORTH",Sohar,TT,,Sohar,24.34716254,56.73741783,Grocery,31470.853,4.875,Shaqsy,True,portfolio,4.1,130,0,,,,0,ChIJ_5rGQL1Fiz4RpTtKsQ0mMsU,,
34910603_CNS362,IZZ COLD STORE - IZZ,0,Adam,TT,,Nizwa,22.841928,57.544393,Grocery,31469.071,0.0,Jinu,True,portfolio,5.0,1,0,,,,0,ChIJb-7b_TD7jj4RFAyQILRphrU,,
34910603_CNN0049,NAWA HYPER MARKET - BIDAYA,"NORTH BATINAH,AL KHABURA,PC:326, POB:567",Bidaya,TT,,Barka,23.92190022,57.16813108,Self Service,30485.307,35.18181818,Shaqsy,True,portfolio,3.9,188,0,,,,0,ChIJG7A3IHVkjD4RKLZpovn8fdo,,
34910603_CN97771,BASHAER NIZWA SHOPPING CENTER - NIZWA,"AL DAKHILIYAH,NIZWA,GHAF ALSHAYKH,111,611,SULTANATE OF OMAN",Nizwa,WS+IS,,Nizwa,22.914967,57.524399,Wholesale,30320.879,6.0,Jinu,True,portfolio,0.0,0,0,,,,0,ChIJe6ExFirxjj4RcDVSxC2iSpI,,
34910603_CNS207,SAIHOOTH SHOPPING CENTRE - KABURAH,"NORTH BATINAH,AL-KHABURA,PC:326,POB:14",Khabura,TT,,Barka,23.96900934,57.09324685,Self Service,28771.705,52.41666667,Shaqsy,True,portfolio,4.2,274,0,,,,0,ChIJ6VuBtkl9jD4RZbpPcAjcNto,,
34910603_CNS227,TAJ HYPER MARKET- HO - KHADRA,"NORTH BATINAH, AL SUWAIQ,PC:315,POB:279",Khadra,TT,,Barka,23.85663157,57.33260956,Self Service,"28,734.15",48.41666667,Shaqsy,True,portfolio,4.0,1018,0,,,,0,ChIJVdyU-CFDjD4RVsztHeif5Mg,,
34910603_CN90554,VILLAGE MALL - SHINAS,"SOHAR,NORTH BATINAH,SOHAR,PC:311, POB:0",Shinas,TT,,Sohar,24.74668154,56.45264022,Self Service,28734.021,31.5,Shaqsy,True,portfolio,3.9,835,0,,,,0,ChIJNYF9ZwzE9D4R5dDTZduZP9U,,
34910603_CNP01301,AL MEERA MARKETS SAOC - BARKA,"BOUSHER, NORTH ALUDHAYBAT,SULTANATE OF OMAN, PC:102, POB:",Barka,KEY ACCOUNT ,,Barka,17.02076868,54.0551195,Rest Of Key Accounts,"28,330.48",0.0,Shaqsy,True,portfolio,0.0,0,0,,,,0,,,
34910603_CN91150,AL BADIA HYPERMARKET - AL KHABOURA,"NORTH BATINAH, AL SUWAIQ, PC:316, PC:194",Khabura,TT,,Barka,23.97120326,57.08961092,Grocery,"28,152.62",31.83333333,Shaqsy,True,portfolio,3.7,118,0,,,,0,ChIJ32P0G0Z9jD4RIoJIzqWQRpA,,
34910603_CN95656,AL WIAAM HYPERMARKET -THARMAD,"NORTH BATINAH,AL SUWAIQ,AS SUWQYQ,SULTANATE OF OMAN,PC:315",Tharmad,TT,,Barka,23.7863054,57.52132146,Grocery,28118.297,42.88888889,Shaqsy,True,portfolio,3.8,988,0,,,,0,ChIJcTO6DqVJjD4REZ6q9bloq20,,
34910603_CN94017,NIZWA TRADE CENTER - NIZWA,0,Nizwa,TT,,Nizwa,22.93584938,57.53001194,Grocery,27454.666,19.66666667,Jinu,True,portfolio,3.9,26,0,,,,0,ChIJBaPRrnrxjj4RYMXh2lbtqOs,,
34910603_CNK035,AL JAMA SHOPPING CENTER - ADAM,"AL DAKHILIYAH,ADAM, SULTANATE OF OMAN,PC:618,POB:17",Adam,TT,,Nizwa,22.37647941,57.52131474,Grocery,26631.499,7.0,Jinu,True,portfolio,4.5,91,0,,,,0,ChIJ-QpYqZJzjz4RhSrdQcaT3iE,,
34910603_CN96649,NASEEM AL WADI HYPERMARKET - SUWAIQ,"NORTH BATINAH, AL SUWAIQ, PC:316, PC:194",Suwaiq,TT,,Barka,23.83854608,57.38360538,Grocery,26378.982,22.41666667,Shaqsy,True,portfolio,4.0,562,0,,,,0,ChIJx_hvB3tEjD4RGE_ud3ReaD0,,
34910603_CNS1241A,SEVEN HILLS TRA LLC(AL AMIR C.S) - AWABI EXPRESS,"SOUTH BATINAH, AL RUSTAQ,PC:318,POB:51",Awabi,TT,,Barka,23.31224242,57.51903512,Self Service,26207.575,70.16666667,Shaqsy,True,portfolio,0.0,0,0,,,,0,,,
34910603_CN95603,MEGA MART-MUSANNAH,"SULTANANE OF OMAN, POST BOX -312 , POSTAL CODE -58, NEAR NESTO HYPER MUJAMA , AL BATINAH SOUTH",Musannah,MT,,Barka,23.74258458,57.63499287,Discounters,25928.458,18.18181818,Shaqsy,True,portfolio,4.1,442,0,,,,0,ChIJ17XClbk1jD4Rn90BRxqoQJU,,
34910603_CNS583,SHERAA AL BATNAH - WUDAM,0,Wudam,TT,,Barka,23.80839207,57.55397604,Grocery,25912.899,33.5,Shaqsy,True,portfolio,5.0,1,0,,,,0,ChIJ9YEuBQBJjD4Rmew3h0yfG94,,
34910603_CN96787,AHLAIN INTERNATIONAL - IZKI,"MUTTRAH,MINA ALFAHAL PC:116, POB:92",Izki,TT,,Nizwa,22.91573267,57.77762621,Grocery,25792.455,8.25,Jinu,True,portfolio,0.0,0,0,,,,0,,,
34910603_CN91536,ANHAR AL FAYHA-SAMAD,"MUTTRAH,PC;111, POB:3347",Samad,TT,,Nizwa,22.89194078,58.23118834,Grocery,25519.165,27.66666667,Jinu,True,portfolio,3.9,63,0,,,,0,ChIJXSxcBBbTjz4RIMQXcTix3CI,,
34910603_CN95814,GIFT BAZAAR - MUSANNA,"AL BATINAIH,MUSANNAH,P.O BOX-0, P. CODE-112,SULTANATE OF OMAN",Musannah,MT,,Barka,23.7572412,57.59058821,Discounters,25087.792,12.57142857,Shaqsy,True,portfolio,4.2,579,0,,,,0,ChIJrZ2EUdY1jD4R4THPDvrDBt8,,
34910603_CN94136,AL MARMARA UNITED COMPANY  LLC - MUDHAIBI,"MUSCAT,AS SEE,MABELA,116,121,SULTANATE OF OMAN",Mudhaibi,TT,,Nizwa,22.5696387,58.1175601,Grocery,24999.763,0.0,Jinu,True,portfolio,0.0,0,0,,,,0,,,
34910603_CNA905,AL JAHRA HYPER MARKET - KABURAH,"NORTH BATINAH,AL KHABURA,PC:326,POB:429",Khabura,TT,,Barka,23.97407596,57.094493,Self Service,24517.824,43.58333333,Shaqsy,True,portfolio,3.7,283,0,,,,0,ChIJOZr6vk59jD4R4FTnGPK8JVY,,
34910603_CNK509,KUMUDAS HEMRAJ(SUWEIQ) - SUWAIQ,"NORTH BATINAH,AL SUWAIQ,PC:315, POB:29",Suwaiq,TT,,Barka,23.84974328,57.43937565,Grocery,24495.163,5.916666667,Shaqsy,True,portfolio,4.1,358,0,,,,0,ChIJ16-jephFjD4R8fOLZI5RR-s,,
34910603_CN95990,BRJS SALES -RUSTAQ,"SULTANAT OF OMAN, P.O BOX -0, P.O BOX -0, RUSTAQ, AL BATINAH SOUTH,",Rustaq,MT,,Barka,23.48554581,57.45520694,Discounters,23687.008,72.5,Shaqsy,True,portfolio,0.0,0,0,,,,0,,,
34910603_CNA9282,AL BEDIYA SHOPPING - BIDIYA,"NORTH BATINAH,AL-SUWAIQ,AL BIDIYAH,316,61,SULTANATE OF OMAN",Bidaya,TT,,Barka,23.920384,57.167715,Self Service,"23,593.49",4.5,Shaqsy,True,portfolio,3.7,52,0,,,,0,ChIJifAPPXVkjD4RktIPlYEijWA,,
34910603_CN92203,FAIDH UNITED TRAD & CONT LLC - BARKAT MOUZ,"IZKI, AL DAKHILIYAH,PC:614,POB:184",Barkat Mouz,TT,,Nizwa,22.91707969,57.66562218,Grocery,23143.039,23.375,Jinu,True,portfolio,4.1,38,0,,,,0,ChIJecVbdRZXjj4R_7MDJkalLx4,,
34910603_CN95428,CAPITAL GIFT MARKET - SINAW,"NORTH BATINAH,AL SUWAIQ,AS SUWAYQ,POB:608,PC:112",Sinaw,MT,,Nizwa,22.4852391,58.02756431,Discounters,23140.739,0.0,Jinu,True,portfolio,3.9,12,0,,,,0,ChIJL8uvl6brjz4RJWL3vZBAMVc,,
34910603_CN97613,TAJ AL FALAJ - SHINAS,"NORTH BATINAH, SOHAR,PC:311, POB:303",Shinas,TT,,Sohar,24.74378,56.460853,Self Service,23092.818,41.81818182,Shaqsy,True,portfolio,4.6,33,0,,,,0,ChIJpQ61cADF9D4RUxdQl7ItFvU,,
34910603_CN90167,AL KAMIYANI ENT LLC - FAUD,0,Nizwa,WS+IS,,Nizwa,22.90458113,57.53466739,Wholesale,22620.964,0.0,Jinu,True,portfolio,0.0,0,0,,,,0,ChIJT3LmKUX7jj4R2_WzXFkZhlk,,
34910603_CN95003,ANHAR AL FAYHA HYPER MARKET -MANAH,"MUTTRAH,PC;111, POB:3347",Manah,TT,,Nizwa,22.79173984,57.6112926,Grocery,21821.182,23.11111111,Jinu,True,portfolio,4.3,14,0,,,,0,ChIJkQB0uwT_jj4RNohxPW479vI,,
34910603_CN90393,MAKKAH HYPER MARKET - MUSANNAH,"NORTH BATINAH,AL SUWAIQ,ATH THARMAD PC:314,POB:331",Musannah,TT,,Barka,23.74516124,57.6201602,Self Service,21800.219,26.22222222,Shaqsy,True,portfolio,3.8,73,0,,,,0,ChIJ7zFrtSI1jD4RCb3mMBKPEug,,
34910603_CN95460,AL MARJAN DISCOUNT CENTRE - BIDAYA,"SOUTH BATINAH,BARKA,320,988,SULTANATE OF OMAN",Bidaya,MT,,Barka,24.342079,56.731594,Discounters,21406.162,0.0,Shaqsy,True,portfolio,0.0,0,0,,,,0,,,
34910603_CNH523,HAMEED SAWELIUM SALEM - ABU ABALI,0,Abu Bali,TT,,Barka,23.73582223,57.67714783,Grocery,21137.428,5.333333333,Shaqsy,True,portfolio,0.0,0,0,,,,0,,,
34910603_CN99292,MARTOO HYPERMARKET - RUSTAQ,"MUSCAT,AL SEEB,AL KHAWD,329,479,MUSCAT,SULTANATE OF OMAN",Rustaq,MT,,Barka,23.433569,57.421224,Discounters,20902.535,50.42857143,Shaqsy,True,portfolio,4.8,16,0,,,,0,ChIJBQP7pmsnjD4R1BK90hTSHwk,,
34910603_CNA577,AUDIOT AL KABURA - KABURAH,0,Khabura,TT,,Sohar,23.97268696,57.09437801,Grocery,20663.063,4.25,Shaqsy,True,portfolio,4.0,2422,0,,,,0,ChIJi3KDvDZ9jD4R1L1It3m-AJs,,
34910603_CN97016,BAVAS HYPERMARKET - SUBAIKY,"NORTH BATINAH, AL SUWAIQ,PC:315,POB:279",Subaikhy,TT,,Barka,23.8386632,57.38163831,Self Service,20377.091,30.33333333,Shaqsy,True,portfolio,4.0,562,0,,,,0,ChIJx_hvB3tEjD4RGE_ud3ReaD0,,
34910603_CNH5350,AL KARAMA HYPER MARKET-KHABOU - KABURAH,"SULTANATE OF OMAN,MUTTRAH,RUWI,PC:112,POB:3593, AL NOOR STREET",Khabura,TT,,Barka,23.97201203,57.09324038,Self Service,20337.354,0.0,Shaqsy,True,portfolio,3.6,198,0,,,,0,ChIJ9wJDIUl9jD4Rqoad3bhkD24,,
34910603_CNA0255,AL AALI SUPER MARKET - KATHARA,0,Khadra,TT,,Barka,23.97488915,57.03708592,Grocery,20126.986,0.0,Shaqsy,True,portfolio,0.0,0,0,,,,0,,,
34910603_CNA1445,AL ANOOD SHOPPING - MUSANNAH,"PC:312,POB:21",Tareef,TT,,Barka,23.7421619,57.62163124,Grocery,20085.543,23.875,Shaqsy,True,portfolio,4.0,96,0,,,,0,ChIJQylSeSI1jD4R0tdFXcYp9zw,,
34910603_CN93185,NAJOOM AL KHALEEJ MARKET-AL BURAYMI,"AL BURAIMI,AL BURAYMI,SULTANATE OF OMAN,POB:346,PC:512",Buraimi,MT,,Sohar,24.25831204,55.7753133,Discounters,19706.202,2.8,Shaqsy,True,portfolio,3.9,317,0,,,,0,ChIJFRzD5Bm0ij4RJwAhugXlksY,,
34910603_CN91121,MARJAN AL HAJAR SHOPPING CENTRE - RUSTAQ,"MUTTRAH,MUSCAT,PC:112, POB:454",Hazem,TT,,Barka,23.56060283,57.44994831,Grocery,19595.056,0.0,Shaqsy,True,portfolio,0.0,0,0,,,,0,,,
34910603_CND501,DOSTEEN TRADING - SUWAIQ,"NORTH BATINAH,SUWAIQ,PC:311,POB:239",Suwaiq,TT,,Barka,23.82563813,57.42099594,Grocery,"19,538.93",71.33333333,Shaqsy,True,portfolio,4.8,121,0,,,,0,ChIJqfDGBEJFjD4RKH0xqY2Tkpo,,
34910603_CNA595,ABDUL RAHIM HASSAN - MUSANNAH,"BARKA;MOBELA  BIDIYA, PC:316, POB:5",Quraim,TT,,Barka,23.78223126,57.60875565,Grocery,19492.05,8.666666667,Shaqsy,True,portfolio,0.0,0,0,,,,0,,,
34910603_CN93374,FOOD MAX HYPERMARKET - MUSANNAH,"SOUTH BATINAH,AL MUSANNA, AT TURAYF,PC:312, POB:3",Musannah,TT,,Barka,23.75261441,57.62460336,Grocery,19177.338,41.75,Shaqsy,True,portfolio,4.0,43,0,,,,0,ChIJZQS8eTU1jD4R3eDxDsgRIHI,,
34910603_CNF0011,FAIROZ AL MADEENA SHOPPING CENTRE - SOHAR,"NORTH BATINAH,LIWA,LIWA,PC:325,POB:291",Palace,TT,,Sohar,24.32250267,56.75793626,Grocery,18932.95,11.0,Shaqsy,True,portfolio,5.0,1,0,,,,0,ChIJb14Fps1diz4R9N_cRFvUSio,,
34910603_CNA1410,ANWAR  OUHI  HADETHA LL - FALAJ,0,Ouhi,TT,,Sohar,24.39546,56.68054,Grocery,18425.229,3.166666667,Shaqsy,True,portfolio,0.0,0,0,,,,0,ChIJaQ1VPQBPiz4RQ4hKQEL_Mrk,,
34910603_CN98951,LULUAT MUSCAT SHOPPING LIMITED PARTNERSHIP - MUSANNAH,0,Musannah,TT,,Barka,23.775908,57.622608,Grocery,18256.179,6.0,Shaqsy,True,portfolio,0.0,0,0,,,,0,,,
34910603_CNL023,LULU HYPERMARKET - BURAIMI,"SULTANATE OF OMAN,MUSCAT,BOUSHER, SOUTH AL KHUWAIR, PC:130,POB:436",Buraimi,LULU,,Sohar,24.24627955,55.83011611,KEY ACCOUNT,18218.179,142.25,Shaqsy,True,portfolio,4.1,2761,0,,,,0,ChIJt6SkVRG2ij4Rmi6q6c1s4L0,,
34910603_CN95496,AL FADL FOR BUSINESS -MUSANNAH,"SULTANAT OF OMAN, P.O BOX -1245, P. CODE-112, MUSANNA,AL BATINAH SOUTH",Musannah,TT,,Barka,23.75914768,57.64448344,Grocery,18047.071,7.125,Shaqsy,True,portfolio,0.0,0,0,,,,0,,,
34910603_DD95496,AL FADL FOR BUSINESS -MUSANNAH,0,Musannah,VAN,,Barka,23.762559,57.647833,Self Service,47.572,3.545454545,Saji Jacob,True,portfolio,0.0,0,0,,,,0,,,
34910603_CN91747,AL ANSARI SHOPPING - MUSANNAH,"AL BATINAH,MUSANNA,SULTANATE OF OMAN,PC:312, POB:418",Musannah,TT,,Barka,23.78314911,57.58581854,Grocery,17613.765,11.66666667,Shaqsy,True,portfolio,4.0,62,0,,,,0,ChIJ18-COG9KjD4R0tTN-z0u0TU,,
34910603_CN94837,ATYAB ALDIAYAFA TRADE-MUSANNAH,"AL BATINAH SOUTH,MUSANNA,11,314,SULTANATE OF OMAN",Musannah,TT,,Barka,23.744746,57.64577247,Grocery,17528.941,22.36363636,Shaqsy,True,portfolio,4.6,5,0,,,,0,ChIJURvXgPnLjT4Rq8kwHqwkQz4,,
34910603_CN95653,EMIRATES GIFT MARKET - SINAW,"MUSCAT,SEEB,AL HAIL,MID ROAD,79,SULTANATE OF OMAN,PC:400, POB:88",Sinaw,MT,,Nizwa,22.50720981,58.03648831,Discounters,17473.663,16.22222222,Jinu,True,portfolio,3.8,272,0,,,,0,ChIJj7iihabrjz4RHfvd-PC4hmE,,
34910603_CNK1102,KUBBA HYPERMARKET (SOHAR GATE) - SAHAM,"PC:526,POB:326",Sohar Gate,TT,,Sohar,24.22785016,56.83169868,Self Service,17337.671,34.75,Shaqsy,True,portfolio,4.0,229,0,,,,0,ChIJy0biINNgiz4R9XYFtgDmZbI,,
34910603_CN92243,JANOOB AL MADEENA HYPERMARKET - DIYAN,"NORTH BATINAH, AL SUWAIQ, PC:315,POB:93",Diyan,TT,,Barka,23.89206243,57.25477841,Self Service,16874.599,24.2,Shaqsy,True,portfolio,0.0,0,0,,,,0,,,
34910603_CN95986,DAY TO DAY DISCOUNT MARKET LLC-BURAIMI,"SOHAR,SOHAR,NORTH AL BATINAH,851,311,SULTANATE OF OMAN",Buraimi,MT,,Sohar,24.24245302,55.85817603,Discounters,16604.81,9.5,Shaqsy,True,portfolio,4.3,591,0,,,,0,ChIJ-7rVj0TJij4Rm_EokulsV1k,,
34910603_CN94627,AL NAWA AL JADEEDAH LLC-2-HAFEET,"NORTH BATINAH,SAHAM,HAFIT,PC:326, POB:628",Hijary,TT,,Sohar,24.05212307,56.97041901,Grocery,16556.324,44.90909091,Shaqsy,True,portfolio,0.0,0,0,,,,0,,,
34910603_CNN1305,HOOR AL AIN HYPERMARKET - HO - RUSTAQ,"AL IRAQI,AL RUSTAQ,POB:46,PC:318, SULTANATE OF OMAN",Rustaq,TT,,Barka,23.48330722,57.45344003,Self Service,16236.152,63.83333333,Shaqsy,True,portfolio,3.9,235,0,,,,0,ChIJ_3nDkAcmjD4R7XfOC_zCXzI,,
34910603_CNK5201,AL JAHWARI TRDG-KHALFAN SAIF - DIYAN,"POB:231,PC:316,AL BATINA NORTH, SUWAIQ,SULTANATE OF OMAN",Dhiyan,TT,,Barka,23.8944391,57.2462822,Grocery,16185.012,0.0,Shaqsy,True,portfolio,4.0,83,0,,,,0,ChIJi-h7xahnjD4RLKYKvOv9LV4,,
34910603_CN94484,SAFA AL KHADRA HYPERMARKET-KADRA,"NORTH BATINAH,AL SUWAIQ,KHADRA,AL SAAD, PC:315, POB:322",Barka,TT,,Barka,23.8565477,57.3337479,Self Service,15972.822,28.83333333,Shaqsy,True,portfolio,5.0,2,0,,,,0,ChIJIybTTMFDjD4R7q6tX7iq-oE,,
34910603_CN91659,AL MELAZ HYPERMARKET - MUSANNAH,"BATINA,MUSANAA,PC:312, POB:152",Musannah,TT,,Barka,23.78790478,57.57479411,Grocery,15874.442,14.88888889,Shaqsy,True,portfolio,0.0,0,0,,,,0,,,
34910603_CN90308,AL AMEER SHOPPING CENTER LLC - IZKI,"IZKI, AL DAKHILIYAH, POB:620, POB:444",Sumail,MT,,Nizwa,22.93077719,57.77725317,Discounters,15872.982,5.0,Jinu,True,portfolio,3.3,11,0,,,,0,ChIJEwWO3_hQjj4RxHDF-s-STRc,,
34910603_CNS514,DUKAN MART - SUWAIQ,0,Subaikhy,TT,,Barka,23.832857,57.424659,Grocery,15872.175,0.0,Shaqsy,True,portfolio,3.7,67,0,,,,0,ChIJN8e1os1FjD4RHIoXUq29b2U,,
34910603_CN8371,AL JAZEERA INTERNATIONAL LLC LLC - SOHAR,"NORTH BATINAH, SOHAR,PC:311,POB:399,SULTANATE OF OMAN",Sohar Gate,TT,,Sohar,24.380068,56.70820661,Grocery,15704.264,0.0,Shaqsy,True,portfolio,4.0,38,0,,,,0,ChIJx8LPNRBFiz4RNxDch0DaLAk,,
34910603_CN90595,NAKHLA AL WADI SHOPPING CENTER - THARMAD,"PC:318, POB:517,THAMRT",Tharmad,TT,,Barka,23.79183142,57.51792359,Grocery,15610.48,0.0,Shaqsy,True,portfolio,0.0,0,0,,,,0,,,
34910603_CNI003,IBRAHIM KHUDA BAKSH TRADG - BURAIMI,"AL BURAIMI,PC:512, POB:18",Buraimi,WS+IS,,Sohar,24.25803117,55.79632183,Wholesale,15470.664,0.0,WS,True,portfolio,0.0,0,0,,,,0,,,
34910603_CN91000,AL WIAAM HYPERMARKET  - SUWAIQ,"NORTH BATINAH,AL SUWAIQ,AS SUWQYQ,SULTANATE OF OMAN,PC:315",Suwaiq,TT,,Barka,23.81832226,57.42153231,Grocery,15440.793,61.33333333,Shaqsy,True,portfolio,4.4,15,0,,,,0,ChIJHVyPsWRFjD4RBxIZCOVJ_iw,,
34910603_CN94706,BASAMAT AL BADIA TRADING LLC - DIYAN,"NORTH BATINAH, AL KHABURA, PC:121,POB:326",Dhiyan,TT,,Barka,23.90409193,57.21315903,Grocery,15381.023,33.0,Shaqsy,True,portfolio,0.0,0,0,,,,0,,,
34910603_CN90014,RAWABI SINAW UNITED - SINAW,"AL SHARQIYA,IBRA,SULTANATE OF OMAN,PC:400, POB:418",Nizwa,TT,,Nizwa,22.49583957,58.02666148,Grocery,15129.203,6.25,Jinu,True,portfolio,0.0,0,0,,,,0,,,
34910603_CNE405,AL EWAN INTERNATIONAL LLC  II - FALAJ,"NORTH BATINAH,SOHAR, PC:319, POB:231",Falaj,TT,,Sohar,24.43525263,56.60813028,Self Service,15037.692,40.45454545,Shaqsy,True,portfolio,3.9,696,0,,,,0,ChIJp6_z5QpJiz4RFLne_94xpkg,,
34910603_CNH014,HALA  HAYPERMARKET - BIDIYA,"SOUTH BATINAH,AL RUSTAQ,PC:329, POB:31",Dhiyan,TT,,Barka,23.90092629,57.22047472,Self Service,14695.151,37.58333333,Shaqsy,True,portfolio,0.0,0,0,,,,0,,,
34910603_CN91184,LAVENDER HYPERMARKET - MUSANNAH,"SOUTH BATINAH,AL MUSANNA,AT TURAYF,312,3,SULTANATE OF OMAN",Barka,TT,,Barka,23.75282003,57.62450905,Grocery,14686.406,0.0,Shaqsy,True,portfolio,4.0,1208,0,,,,0,ChIJ7_EqsjQ1jD4RcnNCtZdGH2Q,,
34910603_CN5945,SAIF MOHD SAIF AL KHARUSI - AWABI,0,Awabi,TT,,Barka,23.31598732,57.54136069,Grocery,14534.955,9.0,Shaqsy,True,portfolio,0.0,0,0,,,,0,,,
34910603_CN93289,SOROUH AL MASNA INTERATIONAL LLC-MUSANNAH,"SULTANANE OF OMAN, POST BOX -191, POSTAL CODE -326, MULADHA, AL BATINAH SOUTH",Musannah,MT,,Barka,23.7579273,57.5931069,Discounters,14524.322,20.33333333,Shaqsy,True,portfolio,0.0,0,0,,,,0,,,
34910603_CN99201,FRUIT OASIS HYPERMARKET - RUSTAQ,"AL RUSTAQ, SOUTH BATINAH GOVERNORATE, OMAN",Rustaq,MT,,Barka,23.484103,57.453719,Discounters,14325.299,51.75,Shaqsy,True,portfolio,5.0,3,0,,,,0,ChIJ7fdGHwAnjD4R4o6oqMHXwpk,,
34910603_CNA231,AL FALAJ SHOPPING CENTRE - SOHAR,"NORTH BATINAH, SOHAR,PC:311, POB:303",Falaj,TT,,Sohar,24.42011959,56.61848373,Self Service,14285.161,63.08333333,Shaqsy,True,portfolio,4.0,1900,0,,,,0,ChIJUZEExHlJiz4R9qgFRDfgV2Q,,
34910603_CND505,ALBLGA SHOPPING CENTER - SUBAIKY,"POB:315,PC:315,AL BATINA SUWAIQ,SULTANATE OF OMAN",Subaikhy,TT,,Barka,23.83884535,57.3778248,Grocery,14206.852,7.875,Shaqsy,True,portfolio,4.0,562,0,,,,0,ChIJx_hvB3tEjD4RGE_ud3ReaD0,,
34910603_CN92529,WAHA AL BURAIMI SUPER MARKET LLC- BURAIMI,"SULTANATE OF OMAN, 300, 512, AL BURAIMI,",Buraimi,TT,,Sohar,24.24330442,55.77413045,Grocery,14142.019,0.0,Shaqsy,True,portfolio,3.9,145,0,,,,0,ChIJ3ygBsqa2ij4RzuqfwuA9yj0,,
34910603_CN95960,ATAYA SHOPPING CENTER- SAHAM,"SULTANTE OF OMAN, P.O BOX-3, P. CODE-312, SAHAM, AL BATINAH NORTH",Saham,MT,,Sohar,24.13627437,56.88222659,Discounters,14133.053,5.833333333,Shaqsy,True,portfolio,3.9,628,0,,,,0,ChIJY4IapeRiiz4RBeIdw2y_feQ,,
34910603_CN96009,GREEN HOUSE SHOPPING CENTER LLC - AL SUWAIQ,"SULTANTE OF OMAN, P.O BOX-261, P. CODE-315, KADRA, AL BATINAH NORTH",Suwaiq,MT,,Barka,23.85514807,57.33591902,Discounters,13954.178,6.4,Shaqsy,True,portfolio,4.0,555,0,,,,0,ChIJyR0uWhhDjD4RSnKNghAxSsA,,
34910603_CNM522,AL HIBA SHOPPING CENTER - MULADHA,0,Mualdah,TT,,Barka,23.74962392,57.57708204,Grocery,13473.613,9.454545455,Shaqsy,True,portfolio,0.0,0,0,,,,0,,,
34910603_CN95635,AL BATINA GIFT MARKET-SOHAR GATE,"SULTANANE OF OMAN, POST BOX -0, POSTAL CODE -311, SOHAR, NEAR LULU SOHAR AL BATINAH NORTH",Sohar,MT,,Sohar,24.33719479,56.72862448,Discounters,13356.832,0.0,Shaqsy,True,portfolio,3.8,486,0,,,,0,ChIJiQRqg8FEiz4RwbTOStzeAqs,,
34910603_CN95605,AL BARARY HYPERMARKET - DIYAN,"SULTANANE OF OMAN, P.O BOX -309, P. CODE-311,SUWAIQ ,AL BATINAH SOUTH,",Suwaiq,TT,,Barka,23.89420898,57.24729977,Grocery,13224.586,17.5,Shaqsy,True,portfolio,4.2,34,0,,,,0,ChIJp2kJqqNnjD4RTWolDqKe3Yc,,
34910603_CN5789,SOHAR GIFT MKT-NO-2-SOHAR,"SULTANANE OF OMAN, P.O BOX -0,P. CODE-0,SOHAR,AL BATINAH NORTH",Sohar,MT,,Sohar,24.34203977,56.73162396,Discounters,13207.723,0.0,Shaqsy,True,portfolio,4.1,130,0,,,,0,ChIJ_5rGQL1Fiz4RpTtKsQ0mMsU,,
34910603_CN94019,MUSCAT SHOPPING-FIRQ - NIZWA TYMSA,"AL SEEB,SOUTH AL HAYL, PC:114, POB:1866",Izki,TT,,Nizwa,22.8816891,57.5420356,Grocery,12928.57,0.0,Jinu,True,portfolio,4.3,679,0,,,,0,ChIJkcVYPsj7jj4R2ltdktdC8xs,,
34910603_CN96919,SALMAN AL RUMH - RUSTAQ,"POB:318,PC:318,RUSTAQ,SOUTH AL BATINAH,SULTANATE OF OMAN",Rustaq,TT,,Barka,23.3991443,57.4192738,Grocery,12874.09,6.285714286,Shaqsy,True,portfolio,4.3,1399,0,,,,0,ChIJJQGQbX2djj4RudDIJygRGc8,,
34910603_CN95119,STAR SAIHOOTH HYPERMARKET-SAHAM,"NORTH BATINAH, SHINAS, AL FALAJ,PC:322,POB:4",Saham,TT,,Sohar,24.13026319,56.85198845,Self Service,12867.421,26.36363636,Shaqsy,True,portfolio,4.1,150,0,,,,0,ChIJJaEiW_Zjiz4RQ5WGNaISgBE,,
34910603_CN95741,AL ANSARI SHOPPING -THARMAD,"AL BATINAH,MUSANNA,SULTANATE OF OMAN,PC:312, POB:418",Tharmad,TT,,Barka,23.82186922,57.50605444,Grocery,12745.488,7.285714286,Shaqsy,True,portfolio,4.6,9,0,,,,0,ChIJE9xS69dJjD4R_cv2llp6n1A,,
34910603_CN97299,HAIL HYPERMARKET - LIWA,"AL BATINAH NORTH,LIWA,LIWA,325,32,SULTANATE OF OMAN",Liwa,TT,,Sohar,24.52160088,56.5401216,Grocery,"12,493.97",3.5,Shaqsy,True,portfolio,3.8,164,0,,,,0,ChIJ9TgqZEo1iz4R3FZVusk0-60,,
34910603_CN99360,AL JAHRA HYPERMARKET - DIYAN,"NORTH BATINAH,AL KHABURA,PC:326,POB:429",Diyan,TT,,Barka,23.896711,57.242212,Grocery,"12,489.51",64.33333333,Shaqsy,True,portfolio,0.0,0,0,,,,0,,,
34910603_CN92494,NOOR AL EZZA SHOPPING CENTRE - BIDAYA,"AL BATINAH,SUWAIQ,SULTANATE OF OMAN,PC:316, POB:179",Bidaya,TT,,Barka,23.90595515,57.15539077,Grocery,"12,403.91",31.25,Shaqsy,True,portfolio,0.0,0,0,,,,0,,,
34910603_CN95712,ADHWAH MAHARA TRAD & CONT-MAHARA,"SULTANANE OF OMAN, P.O BOX -312, P. CODE-215, AL MUSANNAH, AL BATINAH SOUTH",Mahara,TT,,Barka,23.745371,57.621674,Grocery,12361.474,15.0,Shaqsy,True,portfolio,0.0,0,0,,,,0,,,
34910603_CN90935,AL JAZEERA INTERNATIONAL LLC - AL AQARA,"NORTH BATINAH, SOHAR,PC:311,POB:399,SULTANATE OF OMAN",Agar,TT,,Sohar,24.80011804,56.44200457,Grocery,12241.981,54.41666667,Shaqsy,True,portfolio,3.8,198,0,,,,0,ChIJRaLs5E7C9D4RZhjS4JMMjc4,,
34910603_CNJ527,WADI AL JUNAINA TRDG LLC - MUSANNAH,0,Musannah,MT,,Barka,23.74998704,57.62340895,Discounters,"11,990.02",13.625,Shaqsy,True,portfolio,3.6,69,0,,,,0,ChIJ2V1CxD01jD4Rx5VTi6Hr6wc,,
34910603_CN94443,TAJ HYPERMARKET-SUBAIKY - SUWAIQ,"NORTH BATINAH, AL SUWAIQ,PC:315,POB:279",Subaikhy,TT,,Barka,23.8386632,57.38163831,Self Service,11829.653,0.0,Shaqsy,True,portfolio,0.0,0,0,,,,0,,,
34910603_CNF1062,GULF MOUNTAIN FATHIMA SHOPPING - MULADHA,"BOUSHER, SOUTH ALUDHAYABATH,PC:113,POB:643",Muladha,TT,,Barka,23.75191894,57.57660924,Self Service,"11,739.59",29.4,Shaqsy,True,portfolio,3.1,34,0,,,,0,ChIJw7LazPw1jD4R9qe5Zeubq6I,,
34910603_CNK210,AL BAYAN SHOPPING - KABURAH,"SULTANATE OF OMAN, NORTH BATINAH, AL-KHABURA, AL KHABURAH, 326, 766.",Sohar,TT,,Sohar,23.93717309,57.13331193,Self Service,"11,644.62",41.25,Shaqsy,True,portfolio,4.7,3,0,,,,0,ChIJTXAcQQBjjD4RD0-CZG3Eqzw,,
34910603_CN92530,NANA HYPER - SOHAR,"ALBATINA,SOHAR,PC:311, POB:0",Sohar,MT,,Sohar,24.35964455,56.74506401,Discounters,11583.392,27.36363636,Shaqsy,True,portfolio,4.2,63,0,,,,0,ChIJOTDRCPFbiz4RFG5Pgby0PDo,,
34910603_CNB1318,AL BADIA HYPERMARKET - SUWAIQ,"NORTH BATINAH, AL SUWAIQ, PC:316, PC:194",Subaikhy,TT,,Barka,23.84024902,57.3811276,Self Service,"11,466.04",46.58333333,Shaqsy,True,portfolio,4.0,562,0,,,,0,ChIJx_hvB3tEjD4RGE_ud3ReaD0,,
34910603_CNA554,AL ARIN TRADING - BIDIYA,"BARKA;MOBELA  BIDIYA, PC:316, POB:5",Bidaya,TT,,Barka,23.91882424,57.17397521,Self Service,11435.724,12.09090909,Shaqsy,True,portfolio,0.0,0,0,,,,0,,,
34910603_CN96667,AL EZZA SHOPPING  NEW HUWAIL,"NORTH BATINAH,SAHAM,PC:319, POB:252",New Huwail,TT,,Sohar,24.140222,56.861361,Grocery,"11,368.46",33.5,Shaqsy,True,portfolio,0.0,0,0,,,,0,,,
34910603_CNW251,WAHAT SHINAS TRDG STORES - SHINAS,"NORTH BATINAH,SHINAS,SHINAS,POB:222,PC:311, SULTANATE OF OMAN",Shinas,TT,,Sohar,24.74419644,56.46355404,Self Service,11354.149,0.0,Shaqsy,True,portfolio,3.9,282,0,,,,0,ChIJW8OevhrE9D4RrqHDuKNAggI,,
34910603_CNM1229,AL MELAZ SHOPPING CENTRE - MUSANNAH (NEAR AL TAREEF SOUQ R/A),"BATINA,MUSANAA,PC:312, POB:152",Musannah,TT,,Barka,23.74189957,57.64631413,Grocery,"11,204.63",16.375,Shaqsy,True,portfolio,3.9,80,0,,,,0,ChIJuVFaCdXKjT4RtebuJOu1qxw,,
34910603_CN92880,AL ARAB DISCOUNT MARKETS-IZKI,0,Izki,MT,,Nizwa,22.82582999,57.75508191,Discounters,11197.75,3.0,Jinu,True,portfolio,4.1,550,0,,,,0,ChIJ4V80c-lTjj4RK5R0KmENptw,,
34910603_CN95076,MAFAZ AL MUSANNAH TRADING LLC-MUSANNAH,"SULTANATE OF OMAN, AL BATANA , MUSANNAH, 7, 314",Musannah,TT,,Barka,23.76844506,57.68164675,Grocery,11092.776,5.4,Shaqsy,True,portfolio,0.0,0,0,,,,0,,,
34910603_CNS511,SOHAR BEACH BAKERY & STORES - MUSANNAH,"SOHAR, NORTH BATINAH,PC:311, POB:197",Musannah,TT,,Barka,23.75717481,57.59970979,Grocery,"11,075.29",0.0,Shaqsy,True,portfolio,3.7,93,1,,,,0,ChIJ-6-CaZs1jD4Rqaofe2N1DjM,,
34910603_CNN1308,NATIONAL MARKET SHOPPING-FALAJ,"AL BATINA,SOHAR, FALAJ AL QABAEL,SULTANATE OF OMAN,PC:322, POB:399",Falaj,TT,,Sohar,24.4242043,56.61277573,Self Service,11038.674,0.0,Shaqsy,True,portfolio,4.1,169,0,,,,0,ChIJaWH1LwRJiz4RhCOegMpoyqM,,
34910603_CN96795,AHLAIN INTERNATIONAL - SUWAIQ,"MUTTRAH,MINA ALFAHAL PC:116, POB:92",Suwaiq,TT,,Barka,23.8096635,57.4620615,Grocery,10940.403,9.4,Shaqsy,True,portfolio,0.0,0,0,,,,0,,,
34910603_CNA0266,AL SHAMS INTL SHOPPING LLC - WUDAM,"AL DAKHILIA, MUSSANNA, WUDAM AL SAHIL,PC:327,POB:614, SULTANATE OF OMAN",Wudam,TT,,Barka,23.80184953,57.55193423,Grocery,10940.287,8.2,Shaqsy,True,portfolio,0.0,0,0,,,,0,,,
34910603_CN90189,AL SOOR STAR TRADING-MUSANNAH,0,Muragha,TT,,Barka,23.75137684,57.66502377,Grocery,"10,925.46",12.85714286,Shaqsy,True,portfolio,0.0,0,0,,,,0,,,
34910603_CNZ2123,AL JAZEERA INTERNATIONAL LLC LLC - TAREEF 2,"NORTH BATINAH, SOHAR,PC:311,POB:399,SULTANATE OF OMAN",Sohar,TT,,Sohar,24.380088,56.70818278,Grocery,"10,900.30",74.08333333,Shaqsy,True,portfolio,4.0,38,0,,,,0,ChIJx8LPNRBFiz4RNxDch0DaLAk,,
34910603_CN96552,AL SALAMA HYPERMARKET - MUSANNAH,"SOUTH BATINAH,AL-MUSANNA,AL MUSANNAH,315,4,SULTANATE OF OMAN",Musannah,TT,,Barka,23.77878323,57.53481643,Self Service,10712.018,17.6,Shaqsy,True,portfolio,4.2,33,0,,,,0,ChIJ1dn9h3tJjD4RKSRsDt0iHy4,,
34910603_CN93623,AL JAHWARI INTERNATIONAL LLC. - SOHAR - SOHAR,"AL BATINA,SOHAR,PC:311, POB:470",Sohar Gate,TT,,Sohar,24.24792707,56.81541553,Grocery,10639.263,0.0,Shaqsy,True,portfolio,0.0,0,0,,,,0,,,
34910603_CNT1010A,NOOR AL ZAFARAN HYPERMARKET - SOHAR,"NORTH BATINAH, SOHAR,PC:311, POB:303",Zafaran,TT,,Sohar,24.4078353,56.7045632,Self Service,10288.439,33.54545455,Shaqsy,True,portfolio,4.1,269,0,,,,0,ChIJj16s14RPiz4RQybmISe2t3Q,,
34910603_CNM1231,AL MELAZ SHOPPING CENTRE - MUSANNAH (NEAR MUSANNAH R/A - OPP BANK MUSCAT),"BATINA,MUSANAA,PC:312, POB:152",Musannah,TT,,Barka,23.74189957,57.64631413,Grocery,10274.615,26.33333333,Shaqsy,True,portfolio,3.9,80,0,,,,0,ChIJuVFaCdXKjT4RtebuJOu1qxw,,
34910603_CN94913,AL MELAZ HYPERMARKET - WUDHAM SAHAL,"BATINA,MUSANAA,PC:312, POB:152",Musannah,TT,,Barka,23.77502285,57.64411504,Grocery,10110.805,16.28571429,Shaqsy,True,portfolio,4.2,40,0,,,,0,ChIJ7d7QhvPLjT4RO57cBXR4Hgg,,
34910603_CN92853,HORMUZ HYPERMARKET - AL KHABOURA,"AL BATINA, KHABOORA,SULTANATE OF OMAN,PC:326, POB:526",Sohar,TT,,Sohar,23.977029,57.0989194,Grocery,10107.129,11.2,Shaqsy,True,portfolio,3.8,192,0,,,,0,ChIJlQL5GIzqjj4RVXD4PBHwHzc,,
34910603_CN96079,FLOWER GIFT MARKET-NIZWA-FIRQ,"SULTANTE OF OMAN, P.O BOX-3, P. CODE-312, SAHAM, AL BATINAH NORTH",Nizwa,MT,,Nizwa,22.88782362,57.55248069,Discounters,10106.954,11.0,Jinu,True,portfolio,0.0,0,0,,,,0,,,
34910603_CN94492,KHATWAT AL AIBDAE AL RRAYIDA-AL KHABOURA,"POB:344,PC:326, NORTH BATINA,KABURA,SULTANATE OF OMAN",Kaburah,TT,,Sohar,23.9612269,57.07393908,Grocery,10069.267,0.0,Shaqsy,True,portfolio,0.0,0,0,,,,0,,,
34910603_CN99002,AJWA SHOPPING - SOHAR,0,Sohar,TT,,Sohar,24.422157,56.691278,Grocery,10026.259,6.666666667,Shaqsy,True,portfolio,5.0,1,0,,,,0,ChIJ8UNrPABPiz4RKouTVIllZ-s,,
34910603_CN98952,CENTER WDAM TRADE - WUDAM GHAF,0,Wudam,TT,,Barka,23.769167,57.545731,Grocery,9993.197,3.5,Shaqsy,True,portfolio,0.0,0,0,,,,0,ChIJG7LqSgBJjD4RfKdr3BE_1qo,,
34910603_CN92595,ZAD BARKAT HYPER MARKET  - RUSATAQ,"SOUTH BATINAH, AL RUSTAQ,AL HAZM PC:318",Al Sarah,TT,,Barka,23.41199512,57.35368211,Self Service,9982.842,40.75,Shaqsy,True,portfolio,4.2,233,0,,,,0,ChIJAUPXWaghjD4RliCiQK184uk,,
34910603_CN94486,TAJ HYPER MARKET- AL URAIQ - KHADRA,"NORTH BATINAH, AL SUWAIQ,PC:315,POB:279",Khadra,TT,,Barka,23.85324707,57.33720677,Self Service,9885.319,16.0,Shaqsy,True,portfolio,4.0,1018,0,,,,0,ChIJVdyU-CFDjD4RVsztHeif5Mg,,
34910603_CN95466,QATRAT AL SHAHD INVESTMENT -SUWAIQ,"SULTANAT OF OMAN, P.O BOX -160, P. CODE -312, SUWAIQ, AL BATINAH SOUTH",Suwaiq,TT,,Barka,23.78675488,57.52051958,Grocery,9880.158,0.0,Shaqsy,True,portfolio,0.0,0,0,,,,0,,,
34910603_CNS1511,SHABAB AL KHALEEJ - MULTAQA,"SOHAR,NORTH BATINAH,SOHAR,PC:311, POB:661",Muladha,TT,,Sohar,24.42042454,56.66930351,Grocery,9830.572,35.0,Shaqsy,True,portfolio,4.0,183,0,,,,0,ChIJJf-G17hPiz4RflGXP3pMXp0,,
34910603_CNS207A,SAIHOOTH HYPER MARKET - SOHAR,"NORTH BATINAH,AL-KHABURA,PC:326,POB:14",Sohar,TT,,Sohar,24.34751117,56.73781408,Self Service,"9,733.09",74.33333333,Shaqsy,True,portfolio,4.0,755,0,,,,0,ChIJGROWmstEiz4Rvr5gnKLTNYI,,
34910603_CN96670,AL QABAYEL DISCOUNT CENTER LLC - SUWAIQ,"MUSCAT,MABELEH,PC:111, POB:2563",Suwaiq,MT,,Barka,23.88918823,57.27203717,Discounters,9662.555,30.91666667,Shaqsy,True,portfolio,4.0,172,0,,,,0,ChIJD1bfGllnjD4RL1Pw6koXPO4,,
34910603_CNS561,DAWOOD SULEIMAN AL NASSAMY TR - RUSTAQ,0,Rustaq,TT,,Barka,23.39237091,57.42300723,Grocery,9626.852,0.0,Shaqsy,True,portfolio,4.3,1399,0,,,,0,ChIJJQGQbX2djj4RudDIJygRGc8,,
34910603_CNS559,SALEH SAIF AL RUWAHI - RUSTAQ,0,Rustaq,TT,,Barka,23.39261775,57.42299531,Grocery,9460.835,16.57142857,Shaqsy,True,portfolio,3.0,4,0,,,,0,ChIJqQGbcconjD4RdznNTAm_aQQ,,
34910603_CN90203,Luluat Shinas Hypermarket - Shinas,"NORTH BATINAH, SHINAS, AL FALAJ,PC:322,POB:4",Shinas,TT,,Sohar,24.64390372,56.50896105,Self Service,"9,371.17",55.91666667,Shaqsy,True,portfolio,4.0,182,0,,,,0,ChIJaXKLo_3I9D4RPQt6YKBeOpY,,
34910603_CN97855,NOOR AL AQSA SHOPPING CENTRE - MUSANNAH,"AL BATINAH NORTH,BARKA,SAWMHAN,312,242,SULTANATE OF OMAN",Musannah,TT,,Barka,23.7818005,57.5907097,Self Service,9328.123,7.5,Shaqsy,True,portfolio,4.6,11,0,,,,0,ChIJW2ZzuypLjD4RPlZXW5aqWBQ,,
34910603_CN91873,KUBBA HYPERMARKET-AL KHABOURA,"PC:526,POB:326",Khabura,TT,,Sohar,24.01067951,57.04837025,Self Service,9286.25,27.42857143,Shaqsy,True,portfolio,3.8,107,0,,,,0,ChIJHZF6iU6HjD4R_tNRqR6o7Qs,,
34910603_CN91663,HALA EXPRESS SHOPPING - SAHAM,"SOUTH BATINAH,AL RUSTAQ,PC:329, POB:31",Saham,TT,,Sohar,24.11381974,56.91267966,Grocery,9254.785,16.63636364,Shaqsy,True,portfolio,4.1,87,0,,,,0,ChIJafaOK61iiz4Rt0zWGKt_4Yg,,
34910603_CNW207,AL MANAMA SHOPPING CENTER - LIWA JADEED,"AL BATINA SOUTH,LIWA,SULTANATE OF OMAN,PC:325, POB:132",Liwa,TT,,Sohar,24.51634,56.56398,Self Service,9140.286,0.0,Shaqsy,True,portfolio,0.0,0,0,,,,0,,,
34910603_CN95985,SOUQ SOHAR NEW LLC - SOHAR,"MUSCAT,MUSCAT,0,311,SULTANATE OF OMAN",Sohar,MT,,Sohar,24.34031,56.73161,Discounters,9105.681,12.41666667,Shaqsy,True,portfolio,4.1,130,0,,,,0,ChIJ_5rGQL1Fiz4RpTtKsQ0mMsU,,
34910603_CN98875,AL BARIR SHOPPING CENTER - SUWAIQ,0,Suwaiq,TT,,Barka,23.814585,57.451771,Grocery,9097.091,5.5,Shaqsy,True,portfolio,0.0,0,0,,,,0,,,
34910603_CN96439,FAST MART SHOPPING-THARMAD,"POB:112,PC:315,THARMAD,SULTANATE OF OMAN",Tharmad,TT,,Barka,23.78864688,57.51871517,Grocery,8885.689,12.1,Shaqsy,True,portfolio,4.2,31,0,,,,0,ChIJ5QiSB-VJjD4RAd1cBstCwZw,,
34910603_CN98106,AL FAWAN SHOPPING - MUSANNAH,"AL BATINAH NORTH,BARKA,BARKA,288,320,SULTANATE OF OMAN",Musannah,TT,,Barka,23.73641,57.678158,Grocery,8860.266,15.0,Shaqsy,True,portfolio,0.0,0,0,,,,0,,,
34910603_CN91774,MAKKAH HYPERMARKET - BIDAYA,"NORTH BATINAH,AL SUWAIQ,ATH THARMAD PC:314,POB:331",Bidaya,TT,,Barka,23.92085751,57.17063055,Self Service,8859.04,25.0,Shaqsy,True,portfolio,0.0,0,0,,,,0,,,
34910603_CN90072,NOOR SHINAS SHOPPING - SHINAS,"AL BATINA,SHINAS,SULTANATE OF OMAN,PC:324, POB:11",Shinas,TT,,Sohar,24.74765606,56.44854846,Grocery,8829.367,6.4,Shaqsy,True,portfolio,4.2,18,0,,,,0,ChIJWzkHpHTE9D4RuLzfawqHYAo,,
34910603_CNG10544,GRAND HYPERMARKET - SAHAM SANAYA,"MUSCAT,MUTTRAH,RUWI,PC:112, POB:4074, AL NOOR STREET, IKRAM HOUSE",Sanaya,TT,,Sohar,24.1109609,56.81972701,Self Service,"8,807.83",0.0,Shaqsy,True,portfolio,3.9,275,0,,,,0,ChIJ79Z9Tb1kiz4RWsdE3JHmtIQ,,
34910603_CN94228,AL NAWA AL JADEEDAH LLC-SAHAM,"NORTH BATINAH,SAHAM,HAFIT,PC:326, POB:628",Saham,TT,,Sohar,24.05212307,56.97041901,Grocery,"8,686.32",2.0,Shaqsy,True,portfolio,0.0,0,0,,,,0,,,
34910603_CNS1477,SANY GIFT SHOPPING - AL AWABI,0,Awabi,MT,,Barka,23.31315153,57.51769538,Discounters,"8,546.91",7.0,Shaqsy,True,portfolio,0.0,0,0,,,,0,,,
34910603_CNS1408,SALEM HAMEED RASHID CENTRE - MUSANNAH,0,Abu Bali,TT,,Barka,23.7358859,57.67703626,Grocery,"8,477.38",6.727272727,Shaqsy,True,portfolio,0.0,0,0,,,,0,,,
34910603_CNZ292,AL REEM SHOPPING CENTRE - SHINAS,0,Tarif,TT,,Sohar,24.34282,56.69152,Grocery,"8,406.29",0.0,Shaqsy,True,portfolio,0.0,0,0,,,,0,,,
34910603_CNZ2124,AL JAZEERA INTERNATIONAL LLC - LIWA,"NORTH BATINAH, SOHAR,PC:311,POB:399,SULTANATE OF OMAN",Nawama,TT,,Sohar,24.61173826,56.52534502,Grocery,8334.4,21.75,Shaqsy,True,portfolio,4.0,101,0,,,,0,ChIJDT9rc4TJ9D4RyH3HVo3w2Go,,
34910603_CN94397,AL BIR COMMERCIAL CENTER - SHINAS,"SHINAS,NORTH BATINAH,SHINAS,PC:324, POB:13",Shinas,TT,,Sohar,24.7276532,56.4525681,Grocery,"8,255.84",9.4,Shaqsy,True,portfolio,4.3,32,0,,,,0,ChIJa_gpSJ7F9D4RjhLZsQDg5LI,,
34910603_CNA1044,SALEM SHOPPING - WUDAM GHAF,0,Wudam,TT,,Barka,23.77365488,57.54858274,Grocery,"8,161.66",13.5,Shaqsy,True,portfolio,0.0,0,0,,,,0,,,
34910603_CN97644,AL JAZEERA INTERNATIONAL SHOPPING LLC - CWH - FALAJ,"NORTH BATINAH, SOHAR,PC:311,POB:399,SULTANATE OF OMAN",Falaj,Others,,Sohar,24.378253,56.668306,Grocery,8104.844,8.6,Shaqsy,True,portfolio,3.0,1,0,,,,0,ChIJa01-NQBFiz4RsQ05Gsfax_U,,
34910603_CN93010,AL JAHRA HYPERMARKET -SAHAM,"NORTH BATINAH,AL KHABURA,PC:326,POB:429",Saham,TT,,Sohar,24.1570801,56.88756102,Grocery,7930.59,38.44444444,Shaqsy,True,portfolio,4.1,144,0,,,,0,ChIJvVwNgVpiiz4RRS5Mz4_diX0,,
34910603_CN96076,ATAYA SHOPPING CENTER-SHINAS,"SULTANTE OF OMAN, P.O BOX-3, P. CODE-312, SAHAM, AL BATINAH NORTH",Shinas,MT,,Sohar,24.74319484,56.45024472,Discounters,7864.662,7.75,Shaqsy,True,portfolio,4.1,165,0,,,,0,ChIJRdimBaTF9D4RKHE3sqVd87U,,
34910603_CN91728,AL NAWA HYPERMARKET - SAHAM,"NORTH BATINAH,AL KHABURA,PC:326, POB:567",Saham,TT,,Sohar,24.08472828,56.93603644,Self Service,7854.378,35.66666667,Shaqsy,True,portfolio,4.9,7,0,,,,0,ChIJF2uCp5uDjD4RRV874qswUWE,,
34910603_CN98922,AL DANA SHOPPING - MUSANNAH,"SULTANATE OF OMAN, NORTH AL BATINAH GOVERNORATE, KABORA, KOR ROSAL, 57, 326",Musannah,MT,,Barka,23.75586,57.57752,Discounters,7541.475,35.0,Shaqsy,True,portfolio,4.5,6,0,,,,0,ChIJE92ItM01jD4RDNmziA7yPnQ,,
34910603_CN91657,JANOOB AL MADEENA MODRN LLC - BIDAYA,"NORTH BATINAH, AL SUWAIQ, PC:315,POB:93",Bidaya,TT,,Barka,23.89244683,57.25488948,Self Service,7491.943,0.0,Shaqsy,True,portfolio,0.0,0,0,,,,0,,,
34910603_CN96785,AHLAIN INTERNATIONAL - HAIL FIRQ,"MUTTRAH,MINA ALFAHAL PC:116, POB:92",Hail Firq,TT,,Nizwa,22.86055928,57.55389087,Grocery,7469.244,9.625,Jinu,True,portfolio,0.0,0,0,,,,0,,,
34910603_CN94436,AL RABEA HYPERMARKET - LIWA,"NORTH BATINAH,SHINALSHINAS,SULTANATE OF OMAN,PC:300, POB:29",Liwa,TT,,Sohar,24.54481904,56.56082536,Grocery,7456.138,28.0,Shaqsy,True,portfolio,4.5,32,0,,,,0,ChIJEVcXa8vL9D4RGCF8WWbSM6s,,
34910603_CN5736,AL FARIS AL NABEEL TRADING - MUSANNAH,0,Barka,MT,,Barka,23.758778,57.598861,Discounters,7435.775,8.8,Shaqsy,True,portfolio,0.0,0,0,,,,0,,,
34910603_CN94451,AL JAZEERA INTERNATIONAL LLC - SOHAR GATE (MUWEYLA),"NORTH BATINAH, SOHAR,PC:311,POB:399,SULTANATE OF OMAN",Sohar Gate,TT,,Sohar,24.31942335,56.67836612,Grocery,7426.578,21.8,Shaqsy,True,portfolio,4.2,54,0,,,,0,ChIJSw5bR3ZFiz4RsRsNf2vq37k,,
34910603_CN90366,MAATHER MAJAN SHOPPING - RUSTAQ,"SOUTH BATINAH,BARKA,PC:318, POB:47",Musannah,TT,,Barka,23.55798741,57.4857292,Self Service,7426.397,12.125,Shaqsy,True,portfolio,0.0,0,0,,,,0,,,
34910603_CN97154,AL KARAMA INTERNATIONAL LLC - BURAIMI,"MUSCAT,AL SEEB,AS SEEB,119,112,SULTANATE OF OMAN",Buraimi,MT,,Sohar,24.2509774,55.823012,Discounters,"7,415.85",0.0,Shaqsy,True,portfolio,0.0,0,0,,,,0,,,
34910603_CN96074,ATAYA SHOPPING CENTER-SOHAR -SAHAM REEDA,"SULTANTE OF OMAN, P.O BOX-3, P. CODE-312, SAHAM, AL BATINAH NORTH",Saham,MT,,Sohar,24.13635042,56.88227951,Discounters,7397.411,6.2,Shaqsy,True,portfolio,3.9,628,0,,,,0,ChIJY4IapeRiiz4RBeIdw2y_feQ,,
34910603_CNF1069,FARSAN LIWA SHOPPING CENTER - LIWA,"NORTH BATINAH,LIWA,PC:322,POB:475",Liwa,TT,,Sohar,24.52016654,56.55248135,Self Service,7362.121,45.83333333,Shaqsy,True,portfolio,4.1,357,0,,,,0,ChIJ_3DvsVE1iz4RtJ-_H6uYwaU,,
34910603_CN91162,DUBAI HYPERMARKET - SAHAM,"AL SEEB, NORTH AL MOOLAH, PC:132, POB:1019",Saham,TT,,Sohar,24.14511966,56.87792301,Grocery,7325.011,33.5,Shaqsy,True,portfolio,3.9,148,0,,,,0,ChIJ7-PXvf9iiz4RRLMF6wnLSIQ,,
34910603_CN92698,MS MAX - SAHAM,"NORTH BATINAH,SAHAM,PC:319, POB:524",Saham,MT,,Sohar,24.1543746,56.88444278,Discounters,7312.237,8.9,Shaqsy,True,portfolio,4.3,1650,0,,,,0,ChIJrxskIVFiiz4RtNcnyPA2xEw,,
34910603_CN96004,TWO RIALS SHOPPING CENTER LLC- RUSTAQ,0,Rustaq,MT,,Barka,23.43811345,57.40897797,Discounters,7275.181,0.0,Shaqsy,True,portfolio,3.9,454,0,,,,0,ChIJg07dofsmjD4RSZBz2GY0wjE,,
34910603_CN97302,AL MANDOOS DISCOUNT CENTER - SOHAR,"SULTANATE OF OMAN, AL BURAIMI GOVERNORATE, AL BURAIMI, 111, 512.",Sohar,MT,,Sohar,24.38361,56.70027358,Discounters,7197.467,7.0,Shaqsy,True,portfolio,4.4,290,0,,,,0,ChIJk_Z8pxlFiz4RGuNRN84BJQU,,
34910603_CN94737,SIRAJ AL KHAIR SHOPPING CENTER-MUSANNAH,"LIZUGH, AL-DAKHILIYAH,SUMAIL,POB:600,PC:615,SULTANATE OF OMAN",Musannah,TT,,Barka,23.73900107,57.65524047,Grocery,7167.307,0.0,Shaqsy,True,portfolio,3.5,12,0,,,,0,ChIJcRRhXgXLjT4R7wVND_6Oyf4,,
34910603_CNM1328,MADINATH AL WAFA INTL LLC - SOHAR,"NORTH BATINAH,LIWA,PC:325, POB:376",Gadafan,TT,,Sohar,24.4691484,56.6010257,Self Service,7121.094,10.0,Shaqsy,True,portfolio,0.0,0,0,,,,0,,,
34910603_CN97300,X MART  - SOHAR GATE,"DHOFAR,SALALAH,SALALAH,SALALAH,144,211,SULTANATE OF OMAN",Sohar,MT,,Sohar,24.22212508,56.83726597,Discounters,7031.98,12.0,Shaqsy,True,portfolio,4.0,125,0,,,,0,ChIJ4YDNjXNhiz4R4AOAMPPc05M,,
34910603_CNJ252,JUMAIRA INTERNATIONAL LLC - SOHAR,0,Sohar,MT,,Sohar,24.3469954,56.7077179,Discounters,6935.158,0.0,Shaqsy,True,portfolio,4.1,35,0,,,,0,ChIJ9fPc_shFiz4R99jOLqZzj3U,,
34910603_CN98339,AL MEERA SELECT WEST HUMBAR - SOHAR HAMBAR,"BOUSHER, NORTH ALUDHAYBAT,SULTANATE OF OMAN, PC:102, POB:",wadi hibi,TT,,Sohar,24.317912,56.717229,Grocery,"6,904.47",4.0,Shaqsy,True,portfolio,0.0,0,0,,,,0,,,
34910603_CN95316,"AL EWAN HYPERMARKET - AL BASATIN ST, SOHAR","NORTH BATINAH,SOHAR, PC:319, POB:231",Indian School,TT,,Sohar,24.34185698,56.74367133,Self Service,6856.13,32.63636364,Shaqsy,True,portfolio,4.1,86,0,,,,0,ChIJjUVVgWVbiz4RXzVgbqgcdAM,,
34910603_CN96799,AHLAIN INTERNATIONAL - FALAJ AL QABAIL NEW-COCO,"MUTTRAH,MINA ALFAHAL PC:116, POB:92",Falaj Al Qabail,TT,,Sohar,24.41455839,56.59993734,Grocery,6774.643,11.0,Shaqsy,True,portfolio,0.0,0,0,,,,0,,,
34910603_CN95800,AL JAHRA HYPERMARKET - AQAR R/A,"NORTH BATINAH,AL KHABURA,PC:326,POB:429",Aqar,TT,,Sohar,24.80178336,56.43945008,Self Service,6531.011,15.33333333,Shaqsy,True,portfolio,0.0,0,0,,,,0,,,
34910603_CN98121,TANNA BHAGWANJI CHHOTALAL TRAD - RUSTAQ,0,Barka,WS+IS,,Barka,23.39826,57.420612,Wholesale,6479.571,4.25,Shaqsy,True,portfolio,0.0,0,0,,,,0,ChIJn2cLVgAnjD4RpM4R9aeGrm0,,
34910603_CN94148,LOALAT ALWATAN AL BURNZIA  - RUSTAQ,"FALAJ AL ALI, SOUTH BATINAH, AL RUSTAQ,PC:318, POB:47",Hazem,TT,,Barka,23.55269503,57.45420003,Grocery,6435.476,22.55555556,Shaqsy,True,portfolio,0.0,0,0,,,,0,,,
34910603_CN90152,AL KASS SHOPPING - MUSANNAH,"AL BATINA, BARKA, PC:320, POB:237, SULTANATE OF OMAN",Musannah,TT,,Barka,23.77424471,57.6457979,Grocery,6426.336,25.8,Shaqsy,True,portfolio,3.9,58,0,,,,0,ChIJ8V5rHa3KjT4RN3wZzhNKQjM,,
34910603_CN7790,SAMAA AL SUWAIQ TRAD CO L.L.C - AL SUWAYQ,"SULTANATE OF OMAN, NORTH BATINAH, AL-SUWAIQ, AS SUWAYQ, 315, 471, 000000, 0.",Sayma,TT,,Barka,23.8495249,57.4383827,Grocery,6334.384,4.375,Shaqsy,True,portfolio,0.0,0,0,,,,0,,,
34910603_CN4198,BIPIN DHARAMSEY LLC - SOHAR,"MUSCAT, PC:100, POB:670",Sohar,TT,,Sohar,23.89236611,57.25475553,Grocery,"6,302.75",0.0,Shaqsy,True,portfolio,0.0,0,0,,,,0,,,
34910603_CNN0013,NANA HYPERMARKET - SAHAM,RAWAE AL QASBIYA TRAD & CONT,Hijary,TT,,Sohar,24.457357,56.6519719,Self Service,6248.582,0.0,Shaqsy,True,portfolio,0.0,0,0,,,,0,,,
34910603_CNM120,AL EZZA HYPERMARKET - SAHAM,"NORTH BATINAH,SAHAM,PC:319, POB:252",Saham,TT,,Sohar,24.14073656,56.87223135,Self Service,6233.646,82.66666667,Shaqsy,True,portfolio,3.8,654,0,,,,0,ChIJG_KQaAFjiz4RsleSuzrnj-4,,
34910603_CNF1020,AL FARSAN SHOPPING CENTER LL - FALAJ,"NORTH BATINAH,SOHAR,PC:322, POB:461",Falaj,TT,,Sohar,24.42318817,56.61154838,Self Service,6140.645,27.16666667,Shaqsy,True,portfolio,3.8,294,0,,,,0,ChIJyTuDogZJiz4R3_kNvjl6yG4,,
34910603_CNA511,FAISAL SHOPPING CENTRE - SUWAIQ,"MUTTRAH, RUWI, PC:315,POB:93",Suwaiq,TT,,Barka,23.84784705,57.43883725,Self Service,5934.96,22.71428571,Shaqsy,True,portfolio,4.6,5,0,,,,0,ChIJyeZh38pFjD4RnUuTePRu8TA,,
34910603_CN90371,THAQWA HYPERMARKET LLC - KADRA,"NORTH BATINAH, AL SUWAIQ, PC:315, POB:489",Khadra,TT,,Barka,23.85740913,57.32825974,Self Service,5697.484,49.41666667,Shaqsy,True,portfolio,3.9,169,0,,,,0,ChIJt-MvZiBDjD4Rlafnw05GhvU,,
34910603_CN92294,HAY AL AMJAD HYPERMARKET - AWABI,"MUSANDAM, KHASAB,PC:811, POB:148",Hay Alamjad,TT,,Barka,23.35146344,57.48681723,Grocery,"5,603.95",11.5,Shaqsy,True,portfolio,4.2,109,0,,,,0,ChIJ2QqAGoCDjj4ROu9zPFCagFM,,
34910603_CN93541,VILLAGE HYPERMARKETS - MULTAQA,"AL BATNAH NORTH,SOHAR,POB:7,PC:327,SULTANATE OF OMAN",wadi hibi,TT,,Sohar,24.41048983,56.65700265,Grocery,"5,585.64",39.33333333,Shaqsy,True,portfolio,3.8,342,0,,,,0,ChIJx4su1zZPiz4R0FekGI2OXSI,,
34910603_CN90074,MAKKAH HYPER(DOHA SHOPPING) - LIWA,"NORTH BATINAH,AL SUWAIQ,ATH THARMAD PC:314,POB:331",Liwa,TT,,Sohar,24.51634,56.56269,Self Service,"5,486.38",17.8,Shaqsy,True,portfolio,4.2,37,0,,,,0,ChIJt7MnIlNLiz4RtTEY0cyC96o,,
34910603_CN91743,WAHAT AL KASFA SHOPPING CENTRE - RUSTAQ,"SULTANATE OF OMAN, MUSCAT,PC:114, POB:637, FANJA, 0, 0",Nakhal,TT,,Barka,23.38830855,57.42200244,Self Service,"5,464.54",41.75,Shaqsy,True,portfolio,3.8,135,0,,,,0,ChIJjXJR-LMnjD4RM1ghCCKggHU,,
34910603_CN91385,AL QASBEA HYPERMARKET - QASBEA,0,Suq,TT,,Sohar,24.01006154,57.06648571,Grocery,5382.135,12.25,Shaqsy,True,portfolio,0.0,0,0,,,,0,,,
34910603_CN98982,DELMA DISCOUNT CENTER - SAHAM,"NORTH BATINAH,SAHAM,KHOUR AL HAMAM,319,SULTANATE OF OMAN",Saham,MT,,Sohar,24.1310729,56.8944691,Discounters,"5,336.39",28.5,Shaqsy,True,portfolio,3.8,559,0,,,,0,ChIJ5x-mPupiiz4RcrtLNXbv6z4,,
34910603_CN97676,MALL MART -ZAWAH SOHAR AL ALAMIYA - SOHAR,"AL BATINAH NORTH,BARKA,BARKA,208,320,SULTANATE OF OMAN",Sohar,MT,,Sohar,24.3001779,56.7774693,Discounters,"5,199.01",5.333333333,Shaqsy,True,portfolio,4.1,272,0,,,,0,ChIJA5NQbQBdiz4RmL97bg__OWM,,
34910603_CN98946,ANWAR AL BASAMI SHOPPING - RUSATAQ,0,Rustaq,TT,,Barka,23.392237,57.423119,Grocery,5115.622,2.5,Shaqsy,True,portfolio,4.3,42,0,,,,0,ChIJ0cv0fH2djj4Rusf1TzFqWfQ,,
34910603_CNA035,BAGDHAD SHOPPING CENTER - RUSTAQ,BAGDHAD SHOPPING CENTRE L.L.C,Rustaq,TT,,Barka,23.40774738,57.41934225,Grocery,5114.885,12.33333333,Shaqsy,True,portfolio,0.0,0,0,,,,0,,,
34910603_CN96193,LONDON CENTRE - SINAW,"Sultanate of Oman , Muscat, 0, 500, 886, 511",Sinaw,MT,,Nizwa,22.50451843,58.03237835,Discounters,"5,015.97",6.625,Jinu,True,portfolio,4.1,71,0,,,,0,ChIJCxwzaFvrjz4RnmAKU_Khg-0,,
34910603_CNZ746A,ABNA FRESH HYPERMARKET - SOHAR,"PC:961, POB:112",Zuwara,TT,,Sohar,24.30731588,56.76851101,Self Service,"4,996.17",19.16666667,Shaqsy,True,portfolio,3.9,347,0,,,,0,ChIJXZC3ZOtciz4RG31ke2Be52U,,
34910603_CN95516,AL BADIA HYPERMARKET-KADRA,"NORTH BATINAH, AL SUWAIQ, PC:316, PC:194",Kadra,TT,,Barka,23.88163932,57.28882753,Grocery,4990.886,26.81818182,Shaqsy,True,portfolio,0.0,0,0,,,,0,,,
34910603_CN93803,DEAL CENTER - AQAR,"SULTANATE OF OMAN, P.O BOX -0, P.O BOX -325, SHINAS, AL BATINAH NORTH",Al Aqar,TT,,Sohar,24.83206,56.42599,Grocery,4985.048,0.0,Shaqsy,True,portfolio,5.0,6,0,,,,0,ChIJ01ALS_fp9D4RK0p4L4ASvtM,,
34910603_CN92857,AL JAZEERA INTERNATIONAL LLC - HAFEET,"NORTH BATINAH, SOHAR,PC:311,POB:399,SULTANATE OF OMAN",Hijary,TT,,Sohar,24.01006154,57.06648571,Grocery,4868.166,16.09090909,Shaqsy,True,portfolio,0.0,0,0,,,,0,,,
34910603_CNS1241,SEVEN HILLS LLC - RUSTAQ,"SOUTH BATINAH, AL RUSTAQ,PC:318,POB:51",Rustaq,TT,,Barka,23.43275184,57.42192568,Self Service,4694.559,39.33333333,Shaqsy,True,portfolio,5.0,1,0,,,,0,ChIJcfVB1REnjD4RHhkA8EoIlWo,,
34910603_CN96944,FADAK SHOPPING - AL BURAYMI,"POB:634,PC:512,BURAIMI,SULTANATE OF OMAN",Buraimi,TT,,Sohar,24.24946395,55.78301643,Grocery,4519.884,0.0,Shaqsy,True,portfolio,3.8,16,0,,,,0,ChIJbajLMhu0ij4R7yf8VUpMfuQ,,
34910603_CN94713,AL RAWASI SHOPPING CENTER-AL SUWAIQ,"Sultanate of Oman , Muscat, Al Batinah, Suwai, 656, 315",Suwaiq,TT,,Barka,23.84076653,57.46876625,Grocery,4447.345,20.25,Shaqsy,True,portfolio,3.9,30,0,,,,0,ChIJUzqKqmhPjD4RHDOADfoSTqU,,
34910603_CN98628,FREE MART SHOPPING - RUSTAQ,0,Rustaq,MT,,Barka,23.407218,57.419921,Discounters,4401.93,27.5,Shaqsy,True,portfolio,3.9,270,0,,,,0,ChIJS_QVBfUnjD4RLsmILXfee50,,
34910603_CN98004,SUPER MAX DISCOUNT CENTRE - FALAJ,"AL BATINAH SOUTH,SOHAR,SOHAR,311,SULTANATE OF OMAN",Falaj,MT,,Sohar,24.4191867,56.6043148,Discounters,4380.601,18.83333333,Shaqsy,True,portfolio,4.1,62,0,,,,0,ChIJNzhWQABJiz4RQY3kpQpTOd0,,
34910603_CNW506,WUDAM SHOPPING - WUDAM,0,Wudam,TT,,Barka,23.8086981,57.551785,Grocery,4347.401,0.0,Shaqsy,True,portfolio,4.0,1,0,,,,0,ChIJyUdqLwBJjD4RtY7lYXIElq0,,
34910603_CN95403,AL JAZEERA INTERNATIONAL LLC - TAREEF,"NORTH BATINAH, SOHAR,PC:311,POB:399,SULTANATE OF OMAN",Tarif,TT,,Sohar,24.36393,56.71994,Grocery,4328.397,33.625,Shaqsy,True,portfolio,4.0,435,0,,,,0,ChIJ1Z1ofiBFiz4RGbfSi-Uq4I4,,
34910603_CN90553,AFAQ AL KHADRA NATIONAL TRADING - KADRA,"NORTH BATINAH,AL SUWAIQ,315,132,SULTANATE OF OMAN",Kadra,TT,,Sohar,23.86924129,57.30655965,Grocery,4326.298,4.5,Shaqsy,True,portfolio,0.0,0,0,,,,0,,,
34910603_CN98201,AL MEERA SELECT TWIN HOOR  - SUBAIKY,"BOUSHER, NORTH ALUDHAYBAT,SULTANATE OF OMAN, PC:102, POB:",Subaikhy,TT,,Barka,23.70933,57.239669,Grocery,4295.832,21.8,Shaqsy,True,portfolio,3.9,8,0,,,,0,ChIJ8YvGYgBrjD4R_WxS904lspE,,
34910603_CN91131,NANA HYPER MARKET - LIWA,RAWAE AL QASBIYA TRAD & CONT,Liwa,TT,,Sohar,24.5212673,56.540398,Self Service,4184.969,0.0,Shaqsy,True,portfolio,3.8,164,0,,,,0,ChIJ9TgqZEo1iz4R3FZVusk0-60,,
34910603_CN96323,MAJAN DISCOUNT MARKET - AWABI,0,Barka,MT,,Barka,23.32538044,57.50522702,Discounters,4113.688,5.0,Shaqsy,True,portfolio,0.0,0,0,,,,0,,,
34910603_CN97623,AL SALAMA HYPERMARKET - SWADI,"SOUTH BATINAH,AL-MUSANNA,AL MUSANNAH,315,4,SULTANATE OF OMAN",Swadi,TT,,Barka,23.7574186,57.59313023,Self Service,4089.586,27.0,Shaqsy,True,portfolio,0.0,0,0,,,,0,,,
34910603_CN97734,SHAH CHETAN & PARTNERS TRAD.CO.LLC - SOHAR,"AL BATINAH SOUTH,SOHAR,SOHAR,369,119,SULTANATE OF OMAN",Sohar,TT,,Sohar,24.36649937,56.74673825,Grocery,4084.703,4.181818182,Shaqsy,True,portfolio,5.0,2,0,,,,0,ChIJxz9d0Q5Fiz4Rut4qpp5uuwY,,
34910603_CNB1310,BAWABET AL MADEENA SHOPPING - SOHAR,"NORTH BATINAH, SOHAR,PC:325, POB:358",Sohar Gate,TT,,Sohar,24.23170825,56.82806804,Grocery,4045.034,20.33333333,Shaqsy,True,portfolio,4.5,424,0,,,,0,ChIJPWAmizJniz4Ry2RIHM2ZdgY,,
34910603_CNH202,HARIDAS JIVRAJ JAVA & CO - SOHAR,"NORTH BATINAH,SOHAR,SOHAR,SULTANATE OF OMAN,PC:311, POB:32",Sohar,WS+IS,,Sohar,24.36651137,56.74668277,Wholesale,4035.978,0.0,Shaqsy,True,portfolio,3.8,6,0,,,,0,ChIJayS_bQdbiz4Rv4eDuQd6Jdc,,
34910603_CN94281,SHINAS DEVELOPMENT CO.-BARKA,"SHINAS,NORTH BATINAH,SHINAS,SULTANATE OF OMAN,PC:314,POB:48",Barka,TT,,Barka,24.7464427,56.4716415,Self Service,4026.968,0.0,Shaqsy,True,portfolio,3.9,588,0,,,,0,ChIJGyIiYR3E9D4RkjnFj3p8waQ,,
34910603_CNA567,AL KEFAH FOOD STUFF - RUSTAQ,0,Rustaq,TT,,Barka,23.4835075,57.45361332,Grocery,3926.281,17.09090909,Shaqsy,True,portfolio,4.0,363,0,,,,0,ChIJJ6FOvQgmjD4RbxwK6smnD-k,,
34910603_CN96545,AL AFALAJ AL AALI CO.SPC - AL KHADRA,"SULTANTE OF OMAN, P.O BOX-315, P. CODE-315, SUWAIQ, AL BATINAH SOUTH",Khadra,TT,,Barka,23.8633915,57.3142545,Grocery,3882.662,0.0,Shaqsy,True,portfolio,0.0,0,0,,,,0,,,
34910603_CN98066,AL MEERA SELECT  LIWA - LIWA,"BOUSHER, NORTH ALUDHAYBAT,SULTANATE OF OMAN, PC:102, POB:",wadi hibi,TT,,Sohar,24.501503,56.50455,Grocery,3878.71,2.0,Shaqsy,True,portfolio,0.0,0,0,,,,0,,,
34910603_CN92205,AL TAEYF SHOPPING-SUWAIQ,"AL BATINA, SUWAIQ, PC:316, POB00",Tharmad,TT,,Barka,23.82782478,57.42974705,Grocery,3863.194,0.0,Shaqsy,True,portfolio,0.0,0,0,,,,0,,,
34910603_CNB0014,BURJ HAFEET SHIOPPING-HAFEET - HAFEET,"NORTH BATINAH,SHAHAM,326,155,SULTANATE OF OMAN",Sohar,TT,,Sohar,24.0477382,56.98390745,Self Service,3743.8,6.666666667,Shaqsy,True,portfolio,0.0,0,0,,,,0,ChIJA3LeGQCDjD4Rx8VPjYbP_r4,,
34910603_CN96033,ATLAS DISCOUNT CENTER LLC-THARMAD,"SULTANATE OF OMNA, P.O BOX-11, P. CODE-315, THARMAD,AL BATINAH SOUTH",Musannah,MT,,Barka,23.79825912,57.49610336,Discounters,3665.011,24.22222222,Shaqsy,True,portfolio,4.0,179,0,,,,0,ChIJ9w04VwpJjD4R3kCMYA0L5uw,,
34910603_CN98136,AL MEERA SELECT SHINAS - SHINAS,"BOUSHER, NORTH ALUDHAYBAT,SULTANATE OF OMAN, PC:102, POB:",Shinas,TT,,Sohar,24.78158,56.33722,Grocery,3662.304,10.0,Shaqsy,True,portfolio,0.0,0,0,,,,0,,,
34910603_CN98986,TOOBA INTERNATIONAL TRADE LLC - SHINAS,"SULRANATE OF OMAN,NORTH BATINAH,SHINAS,AN NUMA,322,222",wadi hibi,TT,,Sohar,24.617089,56.525037,Grocery,3528.371,35.66666667,Shaqsy,True,portfolio,5.0,3,0,,,,0,ChIJgxNxOgDJ9D4RIqVrXVqemH4,,
34910603_CN6048,AFNAN RUSTAQ TRD - RUSTAQ,"SOUTH BATINAH,AL RUSTAQ,AR RUSTAQ,SULTANATE OF OMAN,PC:318, POB:215",Rustaq,TT,,Barka,23.434965,57.421264,Grocery,3480.589,5.8,Shaqsy,True,portfolio,0.0,0,0,,,,0,ChIJMY6uAwAnjD4RkghLE6CBCHM,,
34910603_CN94302,ALBADAYIL ALUWLAA ALEALAMIA JOINT PARTNERSHIP - SHINAS,"BATNAH,SHINAS,POB:51,PC:324,SULTANATE OF OMAN",Hospital,TT,,Sohar,24.7068633,56.4572865,Self Service,3426.421,0.0,Shaqsy,True,portfolio,0.0,0,0,,,,0,,,
34910603_CN95980,RED AGATE STONE TRADING LLC - BARKA,0,Barka,VAN,,Barka,23.7919078,57.5128509,Grocery,3313.364,11.33333333,Nobey,True,portfolio,0.0,0,0,,,,0,,,
34910603_CN99658,FRIENDS HYPERMARKET - AL AWABI,"SULTANATE OF OMAN, AD DAKHILIYAH GOVERNORATE, BAHLA, NAFA, 600, 6006",Awabi,TT,,Barka,23.31389,57.516792,Grocery,3278.066,56.0,Shaqsy,True,portfolio,4.8,4,0,,,,0,ChIJ4dktDACFjj4RJve9k9J-X04,,
34910603_CN92721,AL TUQA AL RAEDA - RUSATAQ,"SOUTH BATINAH,AL RUSTAQ,AR RUSTAQ,SULTANATE OF OMAN,PC:329, POB:400",Khafdi,TT,,Barka,23.42531148,57.2870832,Grocery,3257.549,20.375,Shaqsy,True,portfolio,0.0,0,0,,,,0,,,
34910603_CNT2009,MAKAH HYPER MARKET - SAHAM,"NORTH BATINAH,AL SUWAIQ,ATH THARMAD PC:314,POB:331",Saham,KEY ACCOUNT ,,Sohar,24.1437138,56.87592018,Rest Of Key Accounts,3248.337,49.66666667,Shaqsy,True,portfolio,3.7,559,0,,,,0,ChIJYYJSKgBjiz4RMMwPKhU8G8s,,
34910603_CN93150,TAJ DELUXE SHOPPING - JAZMA - KHADRA,"NORTH BATINAH, AL SUWAIQ,PC:315,POB:279",Kadra,VAN,,Sohar,23.861558,57.388912,Grocery,3237.474,0.0,Anil,True,portfolio,4.1,114,0,,,,0,ChIJc28WgpFEjD4RTTd_e7n0vUY,,
34910603_CNW01312,WELFARE MARKETS ( KR ) - STF SOHAR,"SULTANATE OF OMAN, MUSCAT, MUSCAT, MUSCAT, 100, 19.",Sohar,TT,,Sohar,24.34257854,56.73191616,Grocery,3236.852,10.2,Shaqsy,True,portfolio,0.0,0,0,,,,0,,,
34910603_CNC599,SCENERY OF BATNA TRADING - NEAR TARIF MASJID - MUSANNAH,"SULTANATE OF OMAN, P.O BOX-0, P.O BOX -0, MUSANNAH, AL BATINAH SOUTH",Tareef,TT,,Barka,23.7486783,57.622865,Grocery,3235.147,4.166666667,Shaqsy,True,portfolio,4.6,68,0,,,,0,ChIJ_YwM7hY1jD4RnDjWDKcQXPg,,
34910603_CNG032,GHADEER SHOPPING CENTER - AL KHADRA,"MUSCAT,BOUSHER,MADINAT ALSULTAN QABOOS,SULTANATE OF OMAN,PC:115, POB:672",Khadra,TT,,Barka,23.8585054,57.3297509,Grocery,3026.264,15.09090909,Shaqsy,True,portfolio,4.0,555,0,,,,0,ChIJyR0uWhhDjD4RSnKNghAxSsA,,
34910603_CNA504,AL HOUZ TRADING - RUSTAQ,0,Rustaq,TT,,Barka,23.38836866,57.42263454,Grocery,2997.49,9.4,Shaqsy,True,portfolio,0.0,0,0,,,,0,,,
34910603_CNM0072,MUSCAT GOLDEN HYPER MARKET LLC - BU ALI,"SOUTH AL SHARQIYA, JALAN BANI BU ALI, PC:416,POB:436",Buali,TT,,Al Kamil,22.01859875,59.33684397,Self Service,2906.155,49.33333333,Jinu,True,portfolio,4.1,732,0,,,,0,ChIJBYARC2NEmj4RVsCJplfFYEc,,
34910603_CNA00954,AL SILASILA RETAIL (SPAR)-SOHAR,"MUSCAT,PC:100, POB:19,SULTANATE OF OMAN",Sohar,TT,,Sohar,24.32046,56.74931,Grocery,2894.562,0.0,Shaqsy,True,portfolio,4.4,14,0,,,,0,ChIJQd21s3Vdiz4R3IHIs6AtexM,,
34910603_CNH401,SHAMS JALAN-HAMED RASHID BUTE - BU ALI,"JALAN, BANI, BUALI,ALKAMIL,PC:100,POB:416",Buali,TT,,Al Kamil,22.03740938,59.32816943,Self Service,2790.384,24.41666667,Jinu,True,portfolio,4.0,226,0,,,,0,ChIJ3Rv0zHBDmj4RzL6s0rSUTUU,,
34910603_CNS1541,SUR GIFT MARKET - SUR,"SUR,SUR,SULTANATE OF OMAN,PC:512, POB:427",Sur,MT,,Al Kamil,22.5782368,59.51298844,Discounters,2692.68,18.8,Jinu,True,portfolio,3.9,724,0,,,,0,ChIJ0z37BCqikD4R9IWsmwKKpEc,,
34910603_CN97161,AL JAZEERA INTERNATIONAL LLC - BU ALI,"NORTH BATINAH, SOHAR,PC:311,POB:399,SULTANATE OF OMAN",Bu Ali,TT,,Al Kamil,22.02031991,59.35540324,Grocery,2644.34,24.8,Jinu,True,portfolio,3.6,26,0,,,,0,ChIJ1diiCgBFmj4Rjxbikdzs5Ek,,
34910603_CNK352,KHAYRAT SHIBH JAZEERA - NIZWA,"AL DAKHILIA,NIZWA,SULTANATE OF OMAN,PC:611, POB:1344",Nizwa-Souq,TT,,Nizwa,22.93127648,57.53327678,Grocery,2618.133,0.0,Jinu,True,portfolio,4.0,21,0,,,,0,ChIJZWIQe83xjj4RW1Ft_a8JqFs,,
34910603_CN96315,NADA HAPPINESS - SUR,"AL SEEB, SOUTH AL AMABILAH, PC:121, POB:1304",Sur,TT,,Al Kamil,22.57874041,59.51546338,Grocery,2593.294,15.5,Jinu,True,portfolio,0.0,0,0,,,,0,,,
34910603_CNJ0001,JASSAR FOOD STUFF - SUR,0,Sur,TT,,Al Kamil,22.56639883,59.50761941,Grocery,2490.411,1.75,Jinu,True,portfolio,0.0,0,0,,,,0,,,
34910603_CNA1412,AFNAN RUSTAQ - RUSTAQ,"SOUTH BATINAH,AL RUSTAQ,AR RUSTAQ,SULTANATE OF OMAN,PC:318, POB:215",Rustaq,TT,,Barka,23.43503257,57.42123789,Grocery,2417.839,0.0,Shaqsy,True,portfolio,0.0,0,0,,,,0,ChIJMY6uAwAnjD4RkghLE6CBCHM,,
34910603_CN96511,ARFAN INTERNATIONAL WHOLESALE SPC - JAALAN BANI BU ALI,0,Jalan Bu Ali,WS+IS,,Al Kamil,22.018543,59.338142,Wholesale,2395.964,4.0,Jinu,True,portfolio,4.3,35,0,,,,0,ChIJ9SckY3xEmj4REjhAvGP4FUU,,
34910603_CN96075,ATAYA SHOPPING CENTER-LIWA,"SULTANTE OF OMAN, P.O BOX-3, P. CODE-312, SAHAM, AL BATINAH NORTH",Liwa,MT,,Sohar,24.51845753,56.56363301,Discounters,2372.668,7.0,Shaqsy,True,portfolio,4.0,598,0,,,,0,ChIJ7-JOuKdKiz4R2P5z1dBQELc,,
34910603_CNG10543,GRAND HYPERMARKET - SOHAR,"MUSCAT,MUTTRAH,RUWI,PC:112, POB:4074, AL NOOR STREET, IKRAM HOUSE",Sohar,TT,,Sohar,24.36016,56.74563,Self Service,2350.858,0.0,Shaqsy,True,portfolio,3.7,484,0,,,,0,ChIJa7aYDSxbiz4RDLM1uuG_szA,,
34910603_CNA1150A,AFNAN MAJAN SHOPPING -SUR,"SOUTH AL SHARQIYA, SUR, PC:411,POB:1107, SULTANATE OF OMAN",Sur,TT,,Al Kamil,22.519399,59.792216,Self Service,2299.616,0.0,Jinu,True,portfolio,0.0,0,0,,,,0,,,
34910603_CN99342,IBN AL HAITHAM MEDICAL CENTER - IBRA,"SULTANATE OF OMAN,AL SHARQIYAH NORTH,IBRA,626,400,IBRA PROVINCE",Ibra,WS+IS,,Al Kamil,22.717222,58.527974,Institutions,2276.833,0.0,Jinu,True,portfolio,3.0,57,0,,,,0,ChIJ69TlpZkkkD4R6Oa6cV-QwK4,,
34910603_CN94728,FANUN SOHAR INTERNATIONAL TRAD - SOHAR GATE,"POB:581,PC:311,AL BATINA,SOHAR,SULTANATE OF OMAN",Kashba,TT,,Sohar,24.39273,56.69399,Grocery,2252.369,0.0,Shaqsy,True,portfolio,0.0,0,0,,,,0,,,
34910603_CNM1058,MA'ALEM AL-KHADRA TRADING - BAHLA,"BAHLA,AL DAKHLLIYAH,BAHLA,PC:612, POB:262",Bahla,TT,,Nizwa,22.94948009,57.28633043,Grocery,2247.678,15.45454545,Jinu,True,portfolio,3.9,736,0,,,,0,ChIJV5skleTBjj4R8zFIyWz9AmY,,
34910603_CNN401A,ORIENTAL SHOPPING - BU ALI (NEAR R/O),"JAALAN BANI BU ALI, SOUTH AL SHARQIYA, PC:416, POB:113",Buali,TT,,Al Kamil,22.026067,59.34107466,Self Service,2241.88,45.41666667,Jinu,True,portfolio,4.2,157,0,,,,0,ChIJXe8NLMZFmj4RMAqbfgWOFNo,,
34910603_CNQ1049,QAFIL SHOPPING CENTRE - RUSTAQ,"IBIR,PC:511, POB:706",Ibri-Al Araqi,MT,,Nizwa,23.27380811,56.54326639,Discounters,2240.566,44.0,Jinu,True,portfolio,3.8,303,0,,,,0,ChIJx2KxWOTdiz4RKfDVUfcTDiw,,
34910603_CN96466,AL SHUAIBI SHOPPING CENTER - BIDIYA,"MUSCAT,MUTTRAH,RUWI,SULTATNATE OF OMAN,PC:320,POB:30",Bidiya,TT,,Al Kamil,22.43123569,58.80569871,Grocery,2229.003,10.5,Jinu,True,portfolio,0.0,0,0,,,,0,,,
34910603_CN97480,SHAIDHA LA REINA MARKET-ARAQI,"DHAHIRAH,IBRI,IBRI,70,416, SULTANTE OF OMAN",Araqi,MT,,Nizwa,23.28349,56.549975,Discounters,2168.74,18.2,Jinu,True,portfolio,3.8,69,0,,,,0,ChIJYdO-WL_diz4R-VkXlbauq68,,
34910603_CN90116,BAHLA AL KHEIR TRAD LLC - BAHLA,"AL DAKHALIYA, BAHLA,BAHLA,SULTANATE OF OMAN,PC:612,0",Bahla-Al Mamurah,TT,,Nizwa,22.99910133,57.31834595,Grocery,2149.514,38.33333333,Jinu,True,portfolio,0.0,0,0,,,,0,,,
34910603_CN93205,HIMM AL-NOOR ENT - BAHLA,"AL DAKHILIYA, NIZWA, PC:611, POB:1230",Bahla-Ghaffat,TT,,Nizwa,22.98277374,57.14945221,Grocery,2107.727,37.0,Jinu,True,portfolio,0.0,0,0,,,,0,,,
34910603_CN50238,AL ALAWI COLD STORE - BAHLA,0,Bahla Souq,TT,,Nizwa,22.96549613,57.29831399,Grocery,2102.124,0.0,Jinu,True,portfolio,4.5,11,0,,,,0,ChIJa3a8Nm6Vjj4RtTAz-WOTuGk,,
34910603_CNM1589,MIDDLE EAST COLD STORES - BISIYA,"AL DAKHILIYA,BAHLA,SULTANATE OF OMAN,131, 116",Bahla Bisiya,TT,,Nizwa,22.7263461,57.24078518,Grocery,2095.609,0.0,Jinu,True,portfolio,0.0,0,0,,,,0,,,
34910603_CNH7170,AL TAMAM INTERNATIONAL - 3. - RUSTAQ,"SULTANATE OF OMAN, MUSCAT,PC:114, POB:637, FANJA, 0, 0",Rustaq,TT,,Barka,23.39421787,57.42313102,Self Service,2075.403,35.18181818,Shaqsy,True,portfolio,3.9,270,0,,,,0,ChIJS_QVBfUnjD4RLsmILXfee50,,
34910603_CNA956,ZAHRAT AL - ZAAFRAN HYPERMARKET - FALAJ DARIS,"SULTANTE OF OMAN, P.O BOX-0, P. CODE-0, NIZWA, AD DAKHILIYAH,",Nizwa,TT,,Nizwa,22.96684881,57.54412451,Grocery,2046.808,26.66666667,Jinu,True,portfolio,5.0,3,0,,,,0,ChIJz--DVwDxjj4Rx6wn1kKuiLg,,
34910603_CN96484,SUQUR AL FALIJ -BU HAS SAN,"SULTANATE OF OMAN, SOUTH AL-SHARQIYA, JALAN BANI BU ALI, 416, BALAD BANI BU ALI, 127.",Bu Hasan,TT,,Al Kamil,22.0987793,59.2881474,Grocery,2039.65,8.5,Jinu,True,portfolio,0.0,0,0,,,,0,,,
34910603_CN91501,MAJID AL FUTTAIM HYPERMARKET - SUR,"MUSCAT, AL SEEB, PC:111,POB:2136,SULTANATE OF OMAN",Sur,KEY ACCOUNT ,,Al Kamil,22.57644608,59.50881557,KEY ACCOUNT,2032.278,78.16666667,Jinu,True,portfolio,3.9,651,0,,,,0,ChIJTdFObCiikD4Rxoc2Kiqlr00,,
34910603_CN94950,ALI AL NASEERI TRADE-IBRI,"SULTANATE OF OMAN, MUSCAT, 11, 511, AL DHAHIRA, IBRI",Ibri,TT,,Nizwa,23.27360541,56.72780247,Grocery,2022.207,21.33333333,Jinu,True,portfolio,0.0,0,0,,,,0,,,
34910603_CN96020,AL JAHRA HYPERMARKET - SHINAS,"NORTH BATINAH,AL KHABURA,PC:326,POB:429",Shinas,TT,,Sohar,24.70676783,56.45753193,Self Service,1970.042,11.66666667,Shaqsy,True,portfolio,3.6,14,0,,,,0,ChIJRYISV_vF9D4RSvAjhlA7BL0,,
34910603_CNW1036,WADI AL FALEJ TRADING - BUHASSAN,0,Bu Hasan,TT,,Al Kamil,22.10360506,59.28375742,Grocery,1953.961,0.0,Jinu,True,portfolio,0.0,0,0,,,,0,,,
34910603_CNW1020,WAHAT AL KASWA - NAKHAL - RUSTAQ,0,Rustaq,TT,,Barka,24.004431,55.699497,Self Service,1941.609,0.0,Shaqsy,True,portfolio,0.0,0,0,,,,0,,,
34910603_CN98068,AL MEERA SELECT SUR - SUR,"BOUSHER, NORTH ALUDHAYBAT,SULTANATE OF OMAN, PC:102, POB:",Sur,TT,,Al Kamil,22.602066,59.432725,Grocery,1929.412,5.4,Jinu,True,portfolio,0.0,0,0,,,,0,,,
34910603_CNS1371,SHAMS AL ATTA TRAD & CONT - BIDIYA,0,Bidiya,TT,,Al Kamil,22.43422,58.8027893,Grocery,1891.815,0.0,Jinu,True,portfolio,0.0,0,0,,,,0,ChIJpVWYYVhzkD4RuvliBNN8X84,,
34910603_CN6824,LATIF RAHMAN CO - SUR,"AL SHARQIYA,SUR,PC:411,POB:145",Sur,TT,,Al Kamil,22.56903859,59.52793592,Grocery,1886.693,2.555555556,Jinu,True,portfolio,5.0,1,0,,,,0,ChIJ1XiTzR6hkD4RwM58UtUN7LI,,
34910603_CN91288,AL FOUZ HYPERMARKET - BIDIYA,"MUSCAT,MUTTRAH,PC:114, POB:1724",Bidiya,TT,,Al Kamil,22.50185183,58.7485173,Self Service,1863.083,0.0,Jinu,True,portfolio,3.8,72,0,,,,0,ChIJR5fX9ldtkD4R1aNi_59zCcE,,
34910603_CN98219,AL MARFA JOINT TRADING COMPANY - IBRI,"SULTANATE OF OMAN, AL-DHAHIRAH, IBRI, IBRI, 511, 511, 000000, 0.",Ibri,WS+IS,,Nizwa,23.220028,56.492611,Wholesale,1813.092,6.5,Jinu,True,portfolio,5.0,2,0,,,,0,ChIJVVskTMrfiz4RH5kLTultFaw,,
34910603_CN98078,AL MEERA SELECT  AQAR  - AL AQAR,"BOUSHER, NORTH ALUDHAYBAT,SULTANATE OF OMAN, PC:102, POB:",Sohar,TT,,Sohar,24.781543,56.337866,Grocery,1792.842,4.0,Shaqsy,True,portfolio,0.0,0,0,,,,0,,,
34910603_CN96786,AHLAIN INTERNATIONAL - NIZWA TYMSA,"MUTTRAH,MINA ALFAHAL PC:116, POB:92",Nizwa,TT,,Nizwa,22.86147048,57.46392253,Grocery,1762.157,4.125,Jinu,True,portfolio,0.0,0,0,,,,0,,,
34910603_CN92729,ADVANCE GATE INVESTMENT LLC-AL HAMRA,"AL SEEB,SOUTH AL HAYL, PC:114, POB:1866",Bahla-Ghaffat,TT,,Nizwa,22.85868972,57.5224205,Grocery,1749.316,0.0,Jinu,True,portfolio,0.0,0,0,,,,0,,,
34910603_CNK706,THOUBA SHOPPING (KHALIL MURAD - IBRA,"MUTTRAH,RUWI, PC:112, POB:2460",Ibra,TT,,Al Kamil,22.833046,58.42721,Grocery,1690.265,0.0,Jinu,True,portfolio,0.0,0,0,,,,0,,,
34910603_CN98065,AL MEERA SELECT  SAHAM  - SAHAM,"BOUSHER, NORTH ALUDHAYBAT,SULTANATE OF OMAN, PC:102, POB:",Saham,TT,,Sohar,24.004554,56.796221,Grocery,1668.622,8.0,Shaqsy,True,portfolio,0.0,0,0,,,,0,,,
34910603_CNR1062,RAWABI AL SALAM SHOPPING CENT - SOHAR,"NORTH BATINAH, SOHAR, PC:311, POB:222",Sohar,TT,,Sohar,24.34595209,56.73644111,Grocery,1649.48,0.0,Shaqsy,True,portfolio,3.8,437,0,,,,0,ChIJF0RUzstEiz4RLwTkgJYUn9Q,,
34910603_CNZ1046,AL ZAIZAH SHOPPING - WAFI,"AL SHARQIYA, JlN BANI BUHASSAN,SULTANATE OF OMAN,PC:412, POB:257",Al Wafi,MT,,Al Kamil,22.18346195,59.22191503,Discounters,1646.823,10.71428571,Jinu,True,portfolio,3.8,98,0,,,,0,ChIJ8_M4ICNkmj4R3X2dswgw4PM,,
34910603_CN95207,SALIM MFTAH ALY'QWBY ALRAYDT LLC-IBRI,"AL DHAHIRAH,IBRI,PC:511,POB:60",Ibri,TT,,Nizwa,23.23492897,56.49861638,Grocery,1627.448,12.0,Jinu,True,portfolio,0.0,0,0,,,,0,,,
34910603_CN95510,AL KUDAMY LLC - AL HAMRA,"AL HAMRA,DHAKALIYA,11,617,SULTANATE OF OMAN",Nizwa,TT,,Nizwa,23.10186018,57.2770127,Grocery,1612.845,40.0,Jinu,True,portfolio,4.1,67,0,,,,0,ChIJp_1aOgG-jj4RIRc902Mf1rM,,
34910603_CNR1207,AL RAKAHEEN FOOD STUFF - AL HAMRA,0,Al Hamra-Souq,TT,,Nizwa,23.11885998,57.2919733,Grocery,1589.833,9.333333333,Jinu,True,portfolio,0.0,0,0,,,,0,,,
34910603_CN94375,BADER AL ZAMAN INTERNATIONAL -SOHAR,"SOHAR,NORTH BATINAH,SOHAR,POB:18,PC:321,SULTANATE OF OMAN",Tarif,TT,,Sohar,24.5230691,56.5595151,Grocery,1589.6,0.0,Shaqsy,True,portfolio,0.0,0,0,,,,0,,,
34910603_CN92614,JALAN CITY INTL SHOPPING - JAALAN BANI BU ALI,"SOUTH AL SHARQIYA,JALAN BANI BU ALI,SULTANATE OF OMAN,POB:56, PC:416",Jalan Bu Ali,TT,,Al Kamil,22.03550455,59.3328079,Grocery,1574.618,7.666666667,Jinu,True,portfolio,3.8,64,0,,,,0,ChIJlz9lb3hDmj4RKeLLKQFSr6E,,
34910603_CNF1019,YAAS MRN SHOPPING LLC - BAHLA,"MUSCAT,SEEB,POB:1200,PC:132,SULTANATE OF OMAN",Bahla,MT,,Nizwa,22.95026455,57.28673816,Discounters,1569.356,0.0,Jinu,True,portfolio,0.0,0,0,,,,0,,,
34910603_CN95452,AL SALAMA DISCOUNT CENTER - AL HAMRA,"MUSCAT,BOUSHER,179,70,420,AL KHUWAIR,SULTANATE OF OMAN",Bahla,VAN,,Nizwa,23.10634667,57.27303166,Grocery,1527.101,0.0,Nobey,True,portfolio,0.0,0,0,,,,0,,,
34910603_CNS327,AL BATRANI COMPREHENSIVE ENTERPRICES - NIZWA,0,Nizwa-Souq,TT,,Nizwa,22.93250497,57.53146173,Grocery,1505.411,0.0,Jinu,True,portfolio,0.0,0,0,,,,0,ChIJUw2dOADxjj4RDf9wTgCYJWA,,
34910603_CN95616,AL HARAMAIN INTERNATIONAL BUSINESS LLC - JAALAN BANI BU ALI,"SULTANANE OF OMAN,P.O BOX -0, P. CODE-0, BU-ALI, ASH SHARQIYAH SOUTH",Jalan Bu Ali,TT,,Al Kamil,22.0374773,59.3277288,Grocery,1485.027,11.0,Jinu,True,portfolio,0.0,0,0,,,,0,,,
34910603_CNT2010A,MAKKAH HYPERMARKET - SUR,"NORTH BATINAH,AL SUWAIQ,ATH THARMAD PC:314,POB:331",Sur,TT,,Al Kamil,22.57907081,59.50306253,Self Service,1484.665,38.16666667,Jinu,True,portfolio,3.8,538,0,,,,0,ChIJCdLc8SaikD4R6qusjyEs2wU,,
34910603_CN90543,BINTOUT INTERNATIONAL TRADING CO - ADAM,"DHOFAR, SALALAH, PC:211, POB:365,SULTANATE OF OMAN",Salalah,TT,,Salalah,17.00750639,54.00675234,Grocery,1483.641,38.0,Nobey,True,portfolio,0.0,0,0,,,,0,,,
34910603_CN99467,TBROZA HYPERMARKET - BAHLA,"Sultanate of Oman , Muscat, Asseeb, Al Khoudh, 1132, 121",Bahla,TT,,Nizwa,22.7266,57.2416,Self Service,1468.496,110.5,Jinu,True,portfolio,5.0,2,0,,,,0,ChIJM3VJX87fjj4R7bJ2pwx4gNA,,
34910603_CNI0011,IBN AL ARAIMI SHOPPING - SUR,0,Sur,TT,,Al Kamil,22.5680861,59.5252469,Grocery,1455.102,0.0,Jinu,True,portfolio,0.0,0,0,,,,0,,,
34910603_CNJ257,AL JAZEERA INTERNATIONAL LLC - SAHAM,"NORTH BATINAH, SOHAR,PC:311,POB:399,SULTANATE OF OMAN",Saham,TT,,Sohar,24.1517235,56.88078776,Grocery,1436.514,3.6,Shaqsy,True,portfolio,4.1,202,0,,,,0,ChIJf1BuEVRiiz4RdZLHrgiKddE,,
34910603_CNZ212,AL JAZEERA INTERNATIONAL LLC - SOHAR NEAR CARREFOUR,"NORTH BATINAH, SOHAR,PC:311,POB:399,SULTANATE OF OMAN",Sohar,TT,,Sohar,24.36035895,56.72132054,Grocery,1429.643,17.3,Shaqsy,True,portfolio,4.0,435,0,,,,0,ChIJ1Z1ofiBFiz4RGbfSi-Uq4I4,,
34910603_CN91460,ABU RETAJ AL MASROORI TRADING - SUR,"MUSCAT,MUTTRAH,QURUM,1309,670,50,415,SULTANATE OF OMAN",Ibra,TT,,Al Kamil,22.598065,59.438887,Grocery,1411.557,0.0,Jinu,True,portfolio,0.0,0,0,,,,0,,,
34910603_CN96344,SIRAJ AL JAZEERA PROJECTS TRADING(WADI QURAYAT MALL)-BAHLA,0,Yanqul,TT,,Nizwa,22.83673156,57.21183605,Grocery,1403.834,17.66666667,Jinu,True,portfolio,0.0,0,0,,,,0,,,
34910603_CNW1029,WADI AL ALAIN SHOP-IBRI,0,Nizwa,TT,,Nizwa,23.12994373,56.88988251,Grocery,1403.353,136.0,Jinu,True,portfolio,0.0,0,0,,,,0,,,
34910603_CNG0015,SMILE HYPERMARKET(GRAND MART HM)-AL HAMRA,"MUSCAT,AL SEEB, AS SEEB,AL MAHA STREET,96,14, PC:133, POB:1029",Nizwa,VAN,,Nizwa,23.1077945,57.2716296,Self Service,1361.735,0.0,Nobey,True,portfolio,0.0,0,0,,,,0,,,
34910603_CN96790,AHLAIN INTERNATIONAL - MUDHAIBI,"MUTTRAH,MINA ALFAHAL PC:116, POB:92",Mudhaibi,TT,,Al Kamil,22.94812305,58.24760893,Grocery,1349.714,3.75,Jinu,True,portfolio,0.0,0,0,,,,0,,,
34910603_CN4486,AL ASKANDARIA SHOPPING - AL KAMIL,"SOUTH AL SHARQIY, AL KAMIL, AL WAFI, PC:412.POB:210",Al Kamil,TT,,Al Kamil,22.247654,59.221412,Grocery,1319.639,0.666666667,Jinu,True,portfolio,0.0,0,0,,,,0,,,
34910603_CNL00814,LUBAN TRADING -  NIZWA TYMSA,"AL QURUM,BOUSHER,PC:112,POB:1413",Nizwa,TT,,Nizwa,22.85400954,57.48541659,Grocery,1264.136,0.0,Jinu,True,portfolio,0.0,0,0,,,,0,,,
34910603_CNG10541,GRAND HYPERMARKET - IBRI,"MUSCAT,MUTTRAH,RUWI,PC:112, POB:4074, AL NOOR STREET, IKRAM HOUSE",Ibri,TT,,Nizwa,23.22371142,56.49520198,Self Service,1255.669,0.0,Jinu,True,portfolio,3.8,714,0,,,,0,ChIJNzsXhefeiz4RGoSvR_zwhwE,,
34910603_CNT2016,MAKKAH HYPER MARKET - SUWAIQ,"NORTH BATINAH,AL SUWAIQ,ATH THARMAD PC:314,POB:331",Suwaiq,KEY ACCOUNT ,,Barka,23.81320005,57.41980624,Rest Of Key Accounts,1250.945,26.0,Shaqsy,True,portfolio,3.8,225,0,,,,0,ChIJ920EhX9GjD4Rzz4feIkNUcg,,
34910603_CN90483,Lulu Hypermarket - Rustaq,"SULTANATE OF OMAN,MUSCAT,BOUSHER, SOUTH AL KHUWAIR, PC:130,POB:436",Rustaq,LULU,,Barka,23.43889312,57.41645117,KEY ACCOUNT,1249.628,120.6666667,Shaqsy,True,portfolio,4.0,1953,0,,,,0,ChIJPw_itvgmjD4RbNECCyz7ZdY,,
34910603_CN95672,AL MAZYMOOD TRAD-SUWAIQ,"SULTANANE OF OMAN, P.O BOX -111, P. CODE -500, ALSUWIQ, AL BATINAH SOUTH",Suwaiq,TT,,Barka,23.82846191,57.4284362,Grocery,1243.932,0.0,Shaqsy,True,portfolio,4.8,121,0,,,,0,ChIJqfDGBEJFjD4RKH0xqY2Tkpo,,
34910603_CN95744,ORIENTAL SHOPPING - BU ALI - ASHKARA ROAD,"JAALAN BANI BU ALI, SOUTH AL SHARQIYA, PC:416, POB:113",Bu Ali,TT,,Al Kamil,22.02050705,59.35198118,Self Service,1211.793,38.91666667,Jinu,True,portfolio,4.2,157,0,,,,0,ChIJXe8NLMZFmj4RMAqbfgWOFNo,,
34910603_CNR0023,RIYADH AL DHARIS SHOPPING          2 - IBRI,"AL DHAHIRA,IBRI,AL DAREEZ,SULTANATE OF OMAN,PC:511, POB:126",Ibri-Idreez,TT,,Nizwa,23.317581,56.61601835,Grocery,1204.871,0.0,Jinu,True,portfolio,0.0,0,0,,,,0,,,
34910603_CN96572,AFNAN MAJAN SHOPPING - SUR CORNICHE,"SOUTH AL SHARQIYA, SUR, PC:411,POB:1107",Sur,TT,,Al Kamil,22.56689046,59.53583784,Grocery,1186.183,8.0,Jinu,True,portfolio,3.8,74,0,,,,0,ChIJVyo0RXahkD4RG4lm_QsBVkI,,
34910603_CN94799,AL TAMAM INTERNATIONAL LLC-IBRA,"SULTANATE OF OMAN, MUSCAT,PC:114, POB:637, FANJA, 0, 0",Ibra,TT,,Al Kamil,22.70557242,58.5432087,Self Service,1167.251,36.625,Jinu,True,portfolio,4.0,192,0,,,,0,ChIJjQwEjKgjkD4RIqxBcuTfQ9U,,
34910603_CN92011,AL FOUZ SHOPPING - RASHALHADD,"MUSCAT,MUTTRAH,PC:114, POB:1724",Rasalkhad,TT,,Al Kamil,22.56983209,59.49594896,Self Service,1164.825,40.33333333,Jinu,True,portfolio,4.0,418,0,,,,0,ChIJiwoHJSiikD4RyBCAdGiUEPQ,,
34910603_CN99452,AL FOUZ HYPERMARKET - BU ALI,"MUSCAT,MUTTRAH,PC:114, POB:1724",Bu Ali,TT,,Al Kamil,22.033167,59.336028,Grocery,1159.256,58.0,Jinu,True,portfolio,4.8,4,0,,,,0,ChIJa_QOWABDmj4RSDMc3qA61Eo,,
34910603_CNB308,BRIGHT ROCKS TRADING & CONT - BAHLA,"AL DAKHILIYA, BAHILA,SULTANATE OF OMAN,PC:612, POB:47",Bahla,TT,,Nizwa,22.97864,57.30681069,Grocery,1145.207,0.0,Jinu,True,portfolio,0.0,0,0,,,,0,,,
34910603_CN91327,AL THAER MODERN TRAD EST - IBRA,"SULTANATE OF OMAN, MUSCAT, NORTH AL SHARQIYAH , AL-MUDHAIBI, AL MUDAYBI, 400, 0",Ibra,TT,,Al Kamil,22.7149778,58.5293639,Grocery,1132.432,2.888888889,Jinu,True,portfolio,4.7,6,0,,,,0,ChIJua68CrslkD4RizmIpGXV3FY,,
34910603_CN92245,TAJ ALMADEENA SHOPPING - NIZWA,"AL DAKHALIYAH, NIZWA,1555,611,SULTANATE OF OMAN",Nizwa,TT,,Nizwa,22.93365382,57.5316656,Grocery,1130.013,16.25,Jinu,True,portfolio,4.6,12,0,,,,0,ChIJXfnIO8Dwjj4RupdBWR2bb_M,,
34910603_CN95441,AL RAWAFED INTERNATIONAL TRADING CO - IBRA,"NORTH AL SHARQIYA,AL MUDHAIBI,AL MUDAYBI,SULTANATE OF OMAN, PC:423, POB:44",Ibra,TT,,Al Kamil,22.69512718,58.54753219,Grocery,1120.715,18.5,Jinu,True,portfolio,0.0,0,0,,,,0,,,
34910603_CN95935,Nesto Hypermarket Llc-Saham,"AL SEEB, SOUTH AL AMABILAH, PC:132,POB:1383",Saham,KEY ACCOUNT ,,Sohar,24.14646617,56.86992423,Rest Of Key Accounts,1119.127,116.0,Shaqsy,True,portfolio,4.1,269,0,,,,0,ChIJ_9Rttetjiz4RQMiTkWBV-JQ,,
34910603_CN90383,RAMEZ SHOPPING CENTER - IBRI,"MUSCAT,AL SEEB,POB:1038,PC:121,SULTANATE OF OMAN",Ibri,KEY ACCOUNT ,,Nizwa,23.21687915,56.48949304,Rest Of Key Accounts,1092.526,73.0,Jinu,True,portfolio,4.0,1379,0,,,,0,ChIJ5y6j0N7eiz4RsW2veOvpfvw,,
34910603_CNL203,LULU HYPERMARKET - SOHAR,"SULTANATE OF OMAN,MUSCAT,BOUSHER, SOUTH AL KHUWAIR, PC:130,POB:436",Sohar,LULU,,Sohar,24.34054952,56.73102163,KEY ACCOUNT,1046.334,191.5,Shaqsy,True,portfolio,4.2,6506,0,,,,0,ChIJt_3w8bdEiz4RfCE4d60_3go,,
34910603_CNA1749,ARDHAL SAFA SHOPPING CENTER - TANUF,"AL DALKILIYA,NIZWA,POB:256, PC:611,SULTANATE OF OMAN",Bahla-Tanouf,TT,,Nizwa,23.0326329,57.45151997,Grocery,1037.32,18.5,Jinu,True,portfolio,3.8,78,0,,,,0,ChIJZdXJgGXtjj4RsEKJLhq2dWM,,
34910603_CN91889,QWAFIL AL BUSTAN EST - NIZWA,"AL DAKHILIYA, NIZWA,SULTANATE OF OMAN,PC:611, POB:893",Nizwa,WS+IS,,Nizwa,22.93503378,57.53352985,Wholesale,1032.418,0.0,Jinu,True,portfolio,4.7,12,0,,,,0,ChIJs1DP4Sbxjj4RycZwyAtpdtY,,
34910603_CN96669,NOOR AL EZZA SHOPPING CENTER - KHOR AL MALAHA,"NORTH BATINAH,SAHAM,PC:319, POB:252",Khor Al Malaha,TT,,Sohar,24.035733,57.039433,Grocery,1028.077,28.66666667,Shaqsy,True,portfolio,0.0,0,0,,,,0,,,
34910603_CNB1377,BUSHRA AL TAIF - AL HAMRA,"DHAKALIA AL HAMRA,SULTANATE OF OMAN,PC:617, POB:98",Al Hamra-Souq,MT,,Nizwa,23.113386,57.292294,Discounters,1019.95,9.777777778,Jinu,True,portfolio,4.5,297,0,,,,0,ChIJly3Fnh2Wjj4RzltIj6gW2y4,,
34910603_CNA401,AL JAWDA SHOPPING - IBRA,"PC:124, POB:337",Ibra,TT,,Al Kamil,22.69054389,58.54416429,Grocery,1014.009,0.0,Jinu,True,portfolio,3.9,1179,0,,,,0,ChIJn6XWbkgjkD4RYJSpzBSCe0E,,
34910603_CN90350,AL AIN GIFT MARKET - Buraimi,"AL BURAIMI, PC:512, POB:1399",Buraimi,TT,,Sohar,24.25565342,55.79713734,Self Service,1010.554,0.0,Shaqsy,True,portfolio,3.8,842,0,,,,0,ChIJ751XJCq0ij4R85j6QOiMVsk,,
34910603_CNW01316,WELFARE MARKETS ( KR ) - AWQAD (OPPOSITE TO OASIS MALL),"SULTANATE OF OMAN, MUSCAT, MUSCAT, MUSCAT, 100, 19.",Salalah,TT,,Salalah,17.00811867,54.04864237,Self Service,1002.467,15.09090909,Jinu,True,portfolio,4.2,1596,0,,,,0,ChIJm81RHnpg0T0RqsL5TVPnAEw,,
34910603_CN99465,FAYHA FRESH - IBRI,"MUTTRAH,PC;111, POB:3347",Ibri,TT,,Nizwa,23.19419,56.47982,Self Service,1000.178,21.5,Jinu,True,portfolio,4.2,5,0,,,,0,ChIJcxkdlm7fiz4RaainAIPSFnY,,
34910603_CNR1003,AL RAJHI SHOPPING - BU HASSAN,0,Bu Hasan,TT,,Al Kamil,22.09664351,59.29023157,Grocery,969.324,0.0,Jinu,True,portfolio,5.0,2,0,,,,0,ChIJBXskWABdmj4RdpuRv_l4WDs,,
34910603_CN96478,FARZAN AL GUBRAH -SOHAR,0,Mumaiza,VAN,,Sohar,24.1935462,56.8582486,Grocery,964.563,0.0,Anil,True,portfolio,0.0,0,0,,,,0,,,
34910603_CN90279,EMIRATES FLOWER MARKETS LLC - BU ALI,"MUSCAT,SEEB,AL HAIL,MID ROAD,79,SULTANATE OF OMAN,PC:400, POB:88",Bu Ali,MT,,Al Kamil,22.0363863,59.3288665,Discounters,941.285,44.81818182,Jinu,True,portfolio,4.3,48,0,,,,0,ChIJOY5lb39Dmj4RIp2I5lXqfGU,,
34910603_CNA324,AL KAMYANI COLD STORES LLC - NIZWA,"AL DAKHILIYAH,NIZWA,NIZWA,SULTANATE OF OMAN,PC:611,POB:87",Nizwa-Firq,WS+IS,,Nizwa,22.90458113,57.53466739,Wholesale,935.087,8.0,Jinu,True,portfolio,4.1,97,0,,,,0,ChIJawI7pxT6jj4ReIbExCfRMLk,,
34910603_CN91639,THE EXCELLENT UNION MARKET LLC - MARFAH,"AL DAKHILIYA,NIZWA,NIZWA,SULTANATE OF OMAN,PC:611, POB:602",Nizwa-Marfa,TT,,Nizwa,22.96040549,57.53851145,Grocery,932.698,23.5,Jinu,True,portfolio,0.0,0,0,,,,0,,,
34910603_CN94954,LULU HYPERMARKET -JALAN BANI BU ALI,"SULTANATE OF OMAN,MUSCAT,BOUSHER, SOUTH AL KHUWAIR, PC:130,POB:436",Bu Ali,LULU,,Al Kamil,22.0464681,59.31632453,KEY ACCOUNT,930.559,73.41666667,Jinu,True,portfolio,4.2,601,0,,,,0,ChIJm58jCNJDmj4RKlJdgDeSO34,,
34910603_CN97090,SUPER CENTER - MAQNIYAT,"POB:1955,PC:611,YANQAL,SULTANATE OF OMAN",Yanqul,TT,,Nizwa,23.38549326,56.85021355,Grocery,927.598,21.45454545,Jinu,True,portfolio,3.8,19,0,,,,0,ChIJ2VtbDE_5iz4R56pbOlnWJDM,,
34910603_CNT2018,MAKKAH HYPER MARKET - YANKAL,"NORTH BATINAH,AL SUWAIQ,ATH THARMAD PC:314,POB:331",Yanqul,KEY ACCOUNT ,,Nizwa,23.59163067,56.5445149,Rest Of Key Accounts,923.377,49.18181818,Jinu,True,portfolio,3.8,458,0,,,,0,ChIJQfL9KxK-iz4RCa5rs1nwyNM,,
34910603_CN96791,AHLAIN INTERNATIONAL - BARWANI,"MUTTRAH,MINA ALFAHAL PC:116, POB:92",Barwani,TT,,Al Kamil,22.58564933,58.68618219,Grocery,899.785,0.0,Jinu,True,portfolio,0.0,0,0,,,,0,,,
34910603_CN95976,AFNAN MAJAN SHOPPING - RAS AL HADD,"SOUTH AL SHARQIYA, SUR, PC:411,POB:1107, SULTANATE OF OMAN",Rayniyah,TT,,Al Kamil,22.5807044,59.50765052,Self Service,891.759,23.83333333,Jinu,True,portfolio,3.9,651,0,,,,0,ChIJTdFObCiikD4Rxoc2Kiqlr00,,
34910603_CN97452,MAKKA HYPER MARKET (IBRI) - HIJARAMATH,"NORTH BATINAH,AL SUWAIQ,ATH THARMAD PC:314,POB:331",Ibri,KEY ACCOUNT ,,Nizwa,23.402331,56.7277686,Rest Of Key Accounts,889.716,36.6,Jinu,True,portfolio,0.0,0,0,,,,0,,,
34910603_CNC6331,SALALAH COLD STORES W/S - SAADA,"SULTANATE OF OMAN,SADAH, P.O BOX:1219, PC:211",Saada,TT,,Salalah,17.014888,54.078594,Grocery,882.211,0.0,Nobey,True,portfolio,5.0,6,0,,,,0,ChIJ1w7R7_rf0z0RlzIrEvQQzyE,,
34910603_CN8731,NOOR AL BAWARAQ CENTRE LLC - AL QABIL,"IBRA,NORTH AL SHARQIYA,PC:400, POB:499",Al Qabil,TT,,Al Kamil,22.55030899,58.82198536,Grocery,878.576,7.571428571,Jinu,True,portfolio,0.0,0,0,,,,0,,,
34910603_CN91192,CITY CORNER SHOPPING CENTRE - SUR,"SOUTH AL SHARQIYA,SUR,SUR,SULTANATE OF OMAN,POB:501, PC:411",Sur,TT,,Al Kamil,22.7822338,58.494964,Grocery,859.364,0.0,Jinu,True,portfolio,0.0,0,0,,,,0,,,
34910603_CN97123,RAKHA ALKALEEJ  - JAALAN BANI BU ALI,"SOUTH AL SHARQIYA,SUR, PC:411, POB:441",Jalan Bu Ali,TT,,Al Kamil,22.01732626,59.330526,Grocery,851.92,5.555555556,Jinu,True,portfolio,3.8,5,0,,,,0,ChIJMfjAAodEmj4RdhJUEH2yPkE,,
34910603_CN97138,GIFT DISCOUNTS CENTER - DHANK,"BURAMI,BURAMI, 1290,132,MID ROAD,SULTANATE OF OMAN",Dhanak,MT,,Nizwa,23.55392911,56.24409784,Discounters,849.311,48.0,Jinu,True,portfolio,4.9,9,0,,,,0,ChIJYd9oi3Gziz4Ryu6kltwYcwk,,
34910603_CN97421,ABU THAHANOON TRAD LLC - SALAAM STREET AT1,"DHOFAR,SALALAH,SALALAH,PC:211, POB:2629",Salaam Street,TT,,Salalah,17.009721,54.080918,Grocery,839.662,5.8,Nobey,True,portfolio,0.0,0,0,,,,0,,,
34910603_CNZ303,AL ALAWI SHOPPING CENTER - BAHLA,0,Bahla-Mamurah,TT,,Nizwa,22.99785186,57.31708114,Grocery,831.945,8.8,Jinu,True,portfolio,4.6,7,0,,,,0,ChIJ2com2gfrjj4R5dXhHlLOGuE,,
34910603_CNW01314,WELFARE MARKETS ( KR ) - NIZWA ROP,"SULTANATE OF OMAN, MUSCAT, MUSCAT, MUSCAT, 100, 19.",Nizwa,TT,,Nizwa,22.89271257,57.42766948,Self Service,814.091,19.90909091,Jinu,True,portfolio,0.0,0,0,,,,0,,,
34910603_CNB1189,AL BURG AIM SHOPPING - BIDIYA,0,Bidiya,TT,,Al Kamil,22.43123226,58.80570041,Grocery,795.302,0.0,Jinu,True,portfolio,0.0,0,0,,,,0,ChIJzTpnXwBzkD4Rt8YW40n9R10,,
34910603_CN95221,SALALAH TRADING INVESNTMENT AND TOURISM-SANAYA,0,Sanaya,MT,,Salalah,17.02881534,54.05236086,Discounters,792.876,7.333333333,Nobey,True,portfolio,0.0,0,0,,,,0,ChIJhxA_eABf0T0RMWOENfUj23U,,
34910603_CNC112,AL ISTEQRAR WAREHOUSE - INDUSTRIAL AREA,"DHOFAR,SALALAH,PC:211, POB:400",Salalah,TT,,Salalah,17.02486817,54.04742887,Self Service,784.549,19.0,Nobey,True,portfolio,4.6,5,0,,,,0,ChIJZfDV3TJf0T0R9_b6zKu0c-w,,
34910603_CN93202,BATH AL MANAR - BIDIYA,"NORTH AL-SHARQIYA,BIDIYA,369,112,SULTANATE OF OMAN",Bidiya,MT,,Al Kamil,22.44391569,58.80463948,Discounters,782.804,22.1,Jinu,True,portfolio,0.0,0,0,,,,0,,,
34910603_CNC529,BIN MALAZI C/M-SANAYAHTMRT - THUMRAIT,"DHOFAR, THAMRAT, SULTANATE OF OMAN,PC:222, POB:28",Thumrait,TT,,Salalah,17.615793,54.04557,Self Service,782.577,4.4,Nobey,True,portfolio,4.3,23,0,,,,0,ChIJnQ5iHB2h1j0RAV9u23151qQ,,
34910603_CN93728,HADI HYPERMARKET - SALALAH,"DHOFAR,SALALAH,PC:121, POB:211",Salam Street,TT,,Salalah,17.01355239,54.0976436,Grocery,777.082,31.41666667,Nobey,True,portfolio,4.0,298,0,,,,0,ChIJ1TYjWpTf0z0RxdRtNs86MW8,,
34910603_CN93421,NESTO HYPERMARKET - SAADA,"AL SEEB, SOUTH AL AMABILAH, PC:132,POB:1383",Saada,KEY ACCOUNT ,,Salalah,17.049355,54.161675,Rest Of Key Accounts,776.434,123.9166667,Jinu,True,portfolio,4.3,1592,0,,,,0,ChIJO3oXCM7h0z0RaqRGvMKAR2o,,
34910603_CN96783,AHLAIN INTERNATIONAL - AL AKHDAR,"MUTTRAH,MINA ALFAHAL PC:116, POB:92",Al Akhdar,TT,,Nizwa,23.249999,56.4131358,Self Service,764.249,5.222222222,Jinu,True,portfolio,0.0,0,0,,,,0,,,
34910603_CNC277,NATIONAL SOLIDARITY TRADING CO. LLC - OPP GTC - SALALAH,"POB:2358,PC211, DHOFAR, SALALAH- NEW INDUSTRIAL,SULTANATE OF OMAN",No.5,TT,,Salalah,17.01649642,54.10081761,Grocery,750.938,9.833333333,Nobey,True,portfolio,4.3,4,0,,,,0,ChIJw1vxFCzf0z0R4A-UwmVbR-4,,
34910603_CNR8011,QUICK LINE SHOPPING CENTER,0,No.5,TT,,Salalah,17.06078287,54.1626504,Grocery,747.451,7.833333333,Nobey,True,portfolio,0.0,0,0,,,,0,,,
34910603_CNK0130,K.M. TRADING CO. & PARTNERS LLC - SALALAH,"MUTTRAH, RUWI,MAZOUN COMPLEX PC:117,POB:963",Salalah,KEY ACCOUNT ,,Salalah,17.01974,54.095088,Rest Of Key Accounts,740.231,55.08333333,Jinu,True,portfolio,3.9,1480,0,,,,0,ChIJ-42-yPrf0z0RtSIwMNbdVgA,,
34910603_CNB11610,ANWAR AL GHABBI SHOPPING CENTER - BIDIYAH,"NORTH AL SHARQIYA,AL MUDHAIBI,SAMAD ASH SHAN,POB:54, PC:423, SULTANATE OF OMAN",Bidiya,TT,,Al Kamil,22.4500169,58.80826748,Self Service,731.002,26.0,Jinu,True,portfolio,4.0,119,0,,,,0,ChIJ6RgRr8FzkD4RE5xbsuowHEk,,
34910603_CNT1154,THAQAH COMMERCIAL MARKET-THAQAH,0,Taqa,TT,,Salalah,17.04274,54.389469,Grocery,728.242,8.818181818,Nobey,True,portfolio,3.7,74,0,,,,0,ChIJ2Uya8AHB0z0Rfb2sJ-E0Cus,,
34910603_CN93333,KHIMJI MART SHELL SELECT-BIDIYA,"MUSCAT,PC:100, POB:19",Bidiya,TT,,Al Kamil,22.45553685,58.80730223,Grocery,724.616,0.0,Jinu,True,portfolio,3.9,359,0,,,,0,ChIJk4RP8cFzkD4RIJZ5Moqhnu4,,
34910603_CNC5450A,NAIF COM CENTER-AWAQAD - AWQAT,"SULTANATE OF OMAN, DHOFAR, SALALAH, AS SINAYAT AL JADIDAH, 217,150.",Awqat,TT,,Salalah,17.00304329,54.03775854,Self Service,721.111,39.75,Nobey,True,portfolio,4.0,316,0,,,,0,ChIJo44nEolg0T0R9gaDFC8Hym0,,
34910603_CN94869,RAEIS INTERNATIONAL LONDON CENTRE-IBRA,"Sultanate of Oman , Muscat, 0, 500, 886, 511",Ibra,MT,,Al Kamil,22.72502464,58.52515308,Discounters,718.268,13.63636364,Jinu,True,portfolio,0.0,0,0,,,,0,,,
34910603_CN96920,BADAOUI SHOPPING CENTER LLC - SANAYA,"DHOFAR,SALALAH,SALALH,211,0,SULANATE OF OMAN",Sanaya,TT,,Salalah,17.0266892,54.0465418,Grocery,712.195,36.0,Nobey,True,portfolio,0.0,0,0,,,,0,,,
34910603_CNC0013,MAJID AL FUTTAIM HYPERMARKET - SALALAH,"MUSCAT, AL SEEB, PC:111,POB:2136,SULTANATE OF OMAN",Salalah,KEY ACCOUNT ,,Salalah,17.023643,54.066562,KEY ACCOUNT,710.66,89.25,Jinu,True,portfolio,4.3,4130,0,,,,0,ChIJmVFTuuFf0T0RG_cSYRJI4eI,,
34910603_CN92376,AL SAFA MODERN SHOPPING CENTRE LLC - DHANK,"MUTTRAH, RUWI,MAZOUN COMPLEX PC:117,POB:963",Dhanak,KEY ACCOUNT ,,Nizwa,23.55945423,56.25334916,Rest Of Key Accounts,705.706,32.0,Jinu,True,portfolio,4.0,93,0,,,,0,ChIJmzzG3j6ziz4RgA44_1B5htE,,
34910603_CN95336,NADA HAPPINESS TRADING LLC - SALALAH,"AL SEEB, SOUTH AL AMABILAH, PC:121, POB:1304",Salalah,WS+IS,,Salalah,17.02010756,54.11321011,Wholesale,694.52,0.0,Nobey,True,portfolio,4.6,9,0,,,,0,ChIJ29UPrtHf0z0RrtRNOaiu85Q,,
34910603_CNI1050,IBRA SERVICE TRAG CO - AL QABIL,0,Al Qabil,TT,,Al Kamil,22.61263256,58.66885063,Grocery,690.247,0.0,Jinu,True,portfolio,0.0,0,0,,,,0,,,
34910603_CN90408,ABU TAHNOON TRADING - SALAAM STREET,"DHOFAR,SALALAH,SALALAH,PC:211, POB:2629",Salam Street,TT,,Salalah,17.013052,54.094876,Self Service,685.063,6.714285714,Nobey,True,portfolio,4.3,29,0,,,,0,ChIJlYMVQsXf0z0RSUYoDk4u13U,,
34910603_CN5965,JUMA BIN SALEM BIN OBOOD AL M - SHINAS,0,Shinas,VAN,,Sohar,24.66870243,56.48423386,Grocery,683.063,7.444444444,Anil,True,portfolio,0.0,0,0,,,,0,,,
34910603_CN96173,DREAMS DISCOUNT CENTER LLC-IBRI,"MUSCAT,MUSCAT,886,511,SULTANATE OF OMAN",Ibri,MT,,Nizwa,23.26818779,56.53942576,Discounters,676.163,23.75,Jinu,True,portfolio,4.0,665,0,,,,0,ChIJbz0Y-d_diz4Rb0PosYTtV4Y,,
34910603_CNN401,ORIENTAL SHOPPING - BU ALI - SOUQ (OPP HOSPITAL),"JAALAN BANI BU ALI, SOUTH AL SHARQIYA, PC:416, POB:113",Buali,TT,,Al Kamil,22.0186613,59.32961171,Self Service,659.829,29.08333333,Jinu,True,portfolio,4.2,157,0,,,,0,ChIJXe8NLMZFmj4RMAqbfgWOFNo,,
34910603_CN93565,ASSAD BIN HAMED BIN ABDULLAH AL AGHBARI-WADI TAYEEN,"SULTANATE OF OMAN, GOVERNORATE OF NORTH AL SHARQIYA, 420, DAMA WA AL TAYYIN, MALAH, 400.",Ibra,TT,,Al Kamil,22.83400944,58.42721613,Grocery,656.77,10.28571429,Jinu,True,portfolio,0.0,0,0,,,,0,,,
34910603_CN96569,MAKKAH HYPERMARKET - BIDAYA SANAYAH,"NORTH BATINAH,AL SUWAIQ,ATH THARMAD PC:314,POB:331",Sanaya,KEY ACCOUNT ,,Barka,23.90119949,57.21871555,Rest Of Key Accounts,651.159,31.3,Shaqsy,True,portfolio,4.4,14,0,,,,0,ChIJu90dWgBnjD4RwMnIcu2kQwo,,
34910603_CN97398,ABU THANOON TRD CDO LLC - SAHAL NOOTH,"DHOFAR,SALALAH,SALALAH,PC:211, POB:2629",Shalnooth,TT,,Salalah,17.076159,54.198466,Grocery,648.948,8.111111111,Nobey,True,portfolio,4.1,146,0,,,,0,ChIJuZyL2xbn0z0Rr6WjtyRBkW4,,
34910603_CNZ402,ZAHER SHOPPING CENTER - BIDIYA,"ALSHARQIYA,BADIYA,PC:421, POB:299",Bidiya,TT,,Al Kamil,22.43701496,58.80132111,Self Service,647.287,22.08333333,Jinu,True,portfolio,4.1,254,0,,,,0,ChIJsfBj7o1zkD4RTHR8MsnEHuM,,
34910603_CN94597,BAWAREQ AL SHAMKHAHIA TRADING EST- SUR,0,Sur,TT,,Al Kamil,22.54173,59.4826747,Grocery,637.115,6.666666667,Jinu,True,portfolio,0.0,0,0,,,,0,,,
34910603_CN7052,AL ARAQI MARKETING - IBRI,"AL UQDAH,SOUTH BATINAH,BARKA,PC:320, POB:134",Ibri,TT,,Nizwa,23.2788962,56.54514176,Grocery,631.711,0.0,Jinu,True,portfolio,4.2,6,0,,,,0,ChIJGcldBADdiz4RRGRqs7IuJYE,,
34910603_CNT0017,TOUBAH SHOPPING CENTRE - 2 -HAIMA,"MUTTRAH,RUWI, PC:112, POB:2460",Haima,TT,,Al Kamil,22.77344038,58.49784481,Self Service,630.973,0.0,Jinu,True,portfolio,3.7,391,0,,,,0,ChIJB4m_tZkkkD4Rv8HlkwnzrRs,,
34910603_CNH5353,AL KARAMA HYPERMARKET - BAHLA,"SULTANATE OF OMAN,MUTTRAH,RUWI,PC:112,POB:3593, AL NOOR STREET",Bahla,KEY ACCOUNT ,,Nizwa,22.9478368,57.27493331,Rest Of Key Accounts,629.37,50.5,Jinu,True,portfolio,3.9,736,0,,,,0,ChIJV5skleTBjj4R8zFIyWz9AmY,,
34910603_CNC242,KHAIRAT AL JANOOB TRADING CO LLC - AL SALAM,"DHOFAR,SALALAH,ALHASAN,PC:211, POB:1190",Salam Street,TT,,Salalah,17.01088402,54.08772434,Grocery,622.433,25.5,Nobey,True,portfolio,4.3,61,0,,,,0,ChIJ3_EX-Crf0z0RDDOYO2BUEb8,,
34910603_CNB1327,SONIC COMPUTERS - SALALAH,0,New Salalah,TT,,Salalah,17.02021742,54.08887187,Grocery,622.207,0.0,Nobey,True,portfolio,3.8,26,0,,,,0,ChIJCR2ZmfHf0z0RkKl2IgdTIds,,
34910603_CN90205,EMIRATES FLOWER MARKET LLC  - IBRA,"MUSCAT,SEEB,AL HAIL,MID ROAD,79,SULTANATE OF OMAN,PC:400, POB:88",Ibra,MT,,Al Kamil,22.71405367,58.53233924,Discounters,614.386,30.1,Jinu,True,portfolio,3.9,523,0,,,,0,ChIJUX3s06EkkD4Ri1d0BFSnO0g,,
34910603_CN90593,HEEM AL MADINA SUPERMARKET - SALALAH,0,No.5,TT,,Salalah,17.016935,54.098025,Grocery,614.005,0.0,Nobey,True,portfolio,0.0,0,0,,,,0,,,
34910603_CNA0104,AL MAHA HYPER MARKET - BISIYA,"MUTTRAH, PC:112,POB:369",Bahla-Bisiya,TT,,Nizwa,22.7313417,57.24586433,Grocery,612.944,13.8,Jinu,True,portfolio,3.9,209,0,,,,0,ChIJV3lS8Frejj4RR3sx6To0UZY,,
34910603_CN98824,QUALITY & SAVING CENTER - SALALAH,"SULTANAT OF OMAN, P.O BOX -365, P. CODE -112, AMERAT,MUSCAT",Saada,MT,,Salalah,17.019318,54.105305,Discounters,604.038,21.0,Nobey,True,portfolio,2.0,4,0,,,,0,ChIJHWOZMzLh0z0RHvLmKbVuBcU,,
34910603_CN90364,AL ASKANDARIA MODREN LLC - AL KAMIL,"SOUTH AL SHARQIY, AL KAMIL, AL WAFI, PC:412.POB:210",Al Kamel,TT,,Al Kamil,22.2236797,59.2024369,Self Service,602.209,0.0,Jinu,True,portfolio,4.0,45,0,,,,0,ChIJd8YpL4Vkmj4RTkfh7WQtIeY,,
34910603_CNK0132,K.M.TRADING - SAHAM,"MUTTRAH, RUWI,MAZOUN COMPLEX PC:117,POB:963",Saham,KEY ACCOUNT ,,Sohar,24.154572,56.868174,Rest Of Key Accounts,594.252,38.57142857,Shaqsy,True,portfolio,0.0,0,0,,,,0,,,
34910603_CNA1189,ASWAR AL GALAJI FUR COMMERICI - AL QABIL,0,Al Qabil,TT,,Al Kamil,22.579744,58.689781,Grocery,584.589,0.0,Jinu,True,portfolio,4.6,5,0,,,,0,ChIJXQqA-ioVkD4RYLkEHdnP7lY,,
34910603_CN93438,BISMI INTERNATIONAL (TAJ AL ARFEEN)AL GHUBAIRA - NEW SALALAH,"DHOFAR,SALALAH,SALALAH,SULTANATE OF OMAN,POB:2153, PC:211",New Salalah,TT,,Salalah,17.014174,54.081079,Grocery,583.919,3.666666667,Nobey,True,portfolio,5.0,5,0,,,,0,ChIJs6O93v1h0T0RBqCwS_h9EqU,,
34910603_CNM1016,FAJAR AL KAMIL TRDG -AL KAMIL,0,Al Kamel,TT,,Al Kamil,22.21806664,59.21093517,Grocery,583.671,0.0,Jinu,True,portfolio,0.0,0,0,,,,0,,,
34910603_CN96815,AHLAIN INTERNATIONAL - THUMRAIT,"MUTTRAH,MINA ALFAHAL PC:116, POB:92",Thumrait,TT,,Salalah,17.6551461,54.0595829,Grocery,578.041,3.636363636,Nobey,True,portfolio,0.0,0,0,,,,0,,,
34910603_CNF351,FALAJ AL DAPAI TRADING-BISIYA,"SULTANATE OF OMAN, P.O BOX-0, P. CODE-0, BISIYA, AD DAKHILIYAH",Nizwa,MT,,Nizwa,22.71578623,57.24079573,Discounters,571.894,0.0,Jinu,True,portfolio,0.0,0,0,,,,0,,,
34910603_CN98919,SAIF MART - NIZWA,"SULTANATE OF OMAN, DAKAHLIA GOVERNORATE, NIZWA, FARK, 1315,611",Nizwa,MT,,Nizwa,22.88024,57.53747,Discounters,569.666,16.33333333,Jinu,True,portfolio,4.3,161,0,,,,0,ChIJC7GxBwD7jj4R06s5u_-KjJQ,,
34910603_CN90860,THOUBA SUPERMARKET - YAMADI,"MUTTRAH,RUWI, PC:112, POB:2460",Yahmadhi,TT,,Al Kamil,22.71797182,58.5289741,Self Service,561.113,18.0,Jinu,True,portfolio,0.0,0,0,,,,0,,,
